[{"country_code":"USA","name":"Wetpaint","founded_year":2005,"category_code":"web","latitude":47.603122,"longitude":-122.333253,"total_money_raised":"$39.8M","total_offices":2,"geoloc":{"type":"Point","coordinates":[-122.333253,47.603122]}},{"country_code":"USA","name":"Wetpaint","founded_year":2005,"category_code":"web","latitude":40.7237306,"longitude":-73.9964312,"total_money_raised":"$39.8M","total_offices":2,"geoloc":{"type":"Point","coordinates":[-73.9964312,40.7237306]}},{"country_code":"USA","name":"Zoho","founded_year":2005,"category_code":"software","latitude":37.692934,"longitude":-121.904945,"total_money_raised":"$0","total_offices":1,"geoloc":{"type":"Point","coordinates":[-121.904945,37.692934]}},{"country_code":"USA","name":"Geni","founded_year":2006,"category_code":"web","latitude":34.090368,"longitude":-118.393064,"total_money_raised":"$16.5M","total_offices":1,"geoloc":{"type":"Point","coordinates":[-118.393064,34.090368]}},{"country_code":"USA","name":"Gizmoz","founded_year":2003,"category_code":"web","latitude":37.48413,"longitude":-122.169472,"total_money_raised":"$18.1M","total_offices":1,"geoloc":{"type":"Point","coordinates":[-122.169472,37.48413]}},{"country_code":"USA","name":"Helio","founded_year":2005,"category_code":"mobile","latitude":34.057498,"longitude":-118.446596,"total_money_raised":"$0","total_offices":1,"geoloc":{"type":"Point","coordinates":[-118.446596,34.057498]}},{"country_code":"USA","name":"Joost","founded_year":2006,"category_code":"games_video","latitude":40.7464969,"longitude":-74.0094471,"total_money_raised":"$45M","total_offices":1,"geoloc":{"type":"Point","coordinates":[-74.0094471,40.7464969]}},{"country_code":"GBR","name":"Babelgum","founded_year":2007,"category_code":"games_video","latitude":53.344104,"longitude":-6.267494,"total_money_raised":"$13.2M","total_offices":1,"geoloc":{"type":"Point","coordinates":[-6.267494,53.344104]}},{"country_code":"USA","name":"Plaxo","founded_year":2002,"category_code":"web","latitude":37.387845,"longitude":-122.055197,"total_money_raised":"$28.3M","total_offices":1,"geoloc":{"type":"Point","coordinates":[-122.055197,37.387845]}},{"country_code":"USA","name":"Technorati","founded_year":2002,"category_code":"advertising","latitude":37.779558,"longitude":-122.393041,"total_money_raised":"$32.1M","total_offices":1,"geoloc":{"type":"Point","coordinates":[-122.393041,37.779558]}},{"country_code":"USA","name":"Sparter","founded_year":2007,"category_code":"games_video","latitude":37.09024,"longitude":-95.712891,"total_money_raised":"$0","total_offices":1,"geoloc":{"type":"Point","coordinates":[-95.712891,37.09024]}},{"country_code":"USA","name":"Mahalo","founded_year":2007,"category_code":"web","latitude":34.017606,"longitude":-118.487267,"total_money_raised":"$21M","total_offices":1,"geoloc":{"type":"Point","coordinates":[-118.487267,34.017606]}},{"country_code":"USA","name":"Veoh","founded_year":2004,"category_code":"games_video","latitude":32.902266,"longitude":-117.20834,"total_money_raised":"$69.8M","total_offices":1,"geoloc":{"type":"Point","coordinates":[-117.20834,32.902266]}},{"country_code":"USA","name":"Kyte","founded_year":2006,"category_code":"games_video","latitude":37.788482,"longitude":-122.409173,"total_money_raised":"$23.4M","total_offices":1,"geoloc":{"type":"Point","coordinates":[-122.409173,37.788482]}},{"country_code":"USA","name":"Thoof","founded_year":2006,"category_code":"web","latitude":30.268735,"longitude":-97.745209,"total_money_raised":"$1M","total_offices":1,"geoloc":{"type":"Point","coordinates":[-97.745209,30.268735]}},{"country_code":"USA","name":"Jingle Networks","founded_year":2005,"category_code":"mobile","latitude":37.480999,"longitude":-122.173887,"total_money_raised":"$88.7M","total_offices":1,"geoloc":{"type":"Point","coordinates":[-122.173887,37.480999]}},{"country_code":"USA","name":"Meetup","founded_year":2002,"category_code":"web","latitude":40.72604,"longitude":-73.995722,"total_money_raised":"$18.3M","total_offices":1,"geoloc":{"type":"Point","coordinates":[-73.995722,40.72604]}},{"country_code":"USA","name":"Wesabe","founded_year":2005,"category_code":"web","latitude":37.793148,"longitude":-122.402567,"total_money_raised":"$4.7M","total_offices":1,"geoloc":{"type":"Point","coordinates":[-122.402567,37.793148]}},{"country_code":"USA","name":"Jangl SMS","founded_year":2005,"category_code":"web","latitude":37.697805,"longitude":-121.907768,"total_money_raised":"$9M","total_offices":1,"geoloc":{"type":"Point","coordinates":[-121.907768,37.697805]}},{"country_code":"USA","name":"SmugMug","founded_year":2002,"category_code":"photo_video","latitude":37.390056,"longitude":-122.067692,"total_money_raised":"$0","total_offices":1,"geoloc":{"type":"Point","coordinates":[-122.067692,37.390056]}},{"country_code":"USA","name":"Jajah","founded_year":2005,"category_code":"mobile","latitude":37.4233896,"longitude":-122.0899512,"total_money_raised":"$33M","total_offices":1,"geoloc":{"type":"Point","coordinates":[-122.0899512,37.4233896]}},{"country_code":"USA","name":"Stickam","founded_year":2006,"category_code":"games_video","latitude":34.051409,"longitude":-118.254558,"total_money_raised":"$0","total_offices":1,"geoloc":{"type":"Point","coordinates":[-118.254558,34.051409]}},{"country_code":"ISR","name":"blogTV","founded_year":2006,"category_code":"games_video","latitude":31.046051,"longitude":34.851612,"total_money_raised":"$3M","total_offices":1,"geoloc":{"type":"Point","coordinates":[34.851612,31.046051]}},{"country_code":"USA","name":"Livestream","founded_year":2007,"category_code":"games_video","latitude":40.726155,"longitude":-73.995625,"total_money_raised":"$14.7M","total_offices":1,"geoloc":{"type":"Point","coordinates":[-73.995625,40.726155]}},{"country_code":"USA","name":"AdaptiveBlue","founded_year":2007,"category_code":"games_video","latitude":40.801358,"longitude":-74.3372,"total_money_raised":"$24M","total_offices":1,"geoloc":{"type":"Point","coordinates":[-74.3372,40.801358]}},{"country_code":"USA","name":"Pando Networks","founded_year":2004,"category_code":"games_video","latitude":40.722655,"longitude":-73.99873,"total_money_raised":"$11M","total_offices":1,"geoloc":{"type":"Point","coordinates":[-73.99873,40.722655]}},{"country_code":"USA","name":"YouTube","founded_year":2005,"category_code":"games_video","latitude":37.627971,"longitude":-122.426804,"total_money_raised":"$11.5M","total_offices":1,"geoloc":{"type":"Point","coordinates":[-122.426804,37.627971]}},{"country_code":"USA","name":"Ikan","founded_year":2003,"category_code":"web","latitude":41.049051,"longitude":-73.563878,"total_money_raised":"$0","total_offices":1,"geoloc":{"type":"Point","coordinates":[-73.563878,41.049051]}},{"country_code":"USA","name":"GrandCentral","founded_year":2006,"category_code":"mobile","latitude":37.465645,"longitude":-121.932202,"total_money_raised":"$4M","total_offices":1,"geoloc":{"type":"Point","coordinates":[-121.932202,37.465645]}},{"country_code":"USA","name":"Topix","founded_year":2002,"category_code":"web","latitude":37.44296,"longitude":-122.151198,"total_money_raised":"$15M","total_offices":1,"geoloc":{"type":"Point","coordinates":[-122.151198,37.44296]}},{"country_code":"USA","name":"Pownce","founded_year":2007,"category_code":"web","latitude":37.762541,"longitude":-122.397224,"total_money_raised":"$0","total_offices":1,"geoloc":{"type":"Point","coordinates":[-122.397224,37.762541]}},{"country_code":"GBR","name":"AllPeers","founded_year":2004,"category_code":"web","latitude":51.752276,"longitude":-1.255824,"total_money_raised":"$0","total_offices":1,"geoloc":{"type":"Point","coordinates":[-1.255824,51.752276]}},{"country_code":"USA","name":"CriticalMetrics","founded_year":2007,"category_code":"web","latitude":37.269175,"longitude":-119.306607,"total_money_raised":"$100k","total_offices":1,"geoloc":{"type":"Point","coordinates":[-119.306607,37.269175]}},{"country_code":"USA","name":"ZenZui","founded_year":2007,"category_code":"mobile","latitude":47.620716,"longitude":-122.347533,"total_money_raised":"$0","total_offices":1,"geoloc":{"type":"Point","coordinates":[-122.347533,47.620716]}},{"country_code":"USA","name":"Wize","founded_year":2006,"category_code":"ecommerce","latitude":37.559287,"longitude":-122.302262,"total_money_raised":"$4.99M","total_offices":1,"geoloc":{"type":"Point","coordinates":[-122.302262,37.559287]}},{"country_code":"USA","name":"SodaHead","founded_year":2007,"category_code":"web","latitude":37.269175,"longitude":-119.306607,"total_money_raised":"$12.7M","total_offices":1,"geoloc":{"type":"Point","coordinates":[-119.306607,37.269175]}},{"country_code":"USA","name":"Revision3","founded_year":2005,"category_code":"games_video","latitude":37.757758,"longitude":-122.388243,"total_money_raised":"$9M","total_offices":1,"geoloc":{"type":"Point","coordinates":[-122.388243,37.757758]}},{"country_code":"USA","name":"iSkoot","founded_year":2005,"category_code":"mobile","latitude":42.375392,"longitude":-71.118487,"total_money_raised":"$32.2M","total_offices":2,"geoloc":{"type":"Point","coordinates":[-71.118487,42.375392]}},{"country_code":"USA","name":"iSkoot","founded_year":2005,"category_code":"mobile","latitude":37.780134,"longitude":-122.396744,"total_money_raised":"$32.2M","total_offices":2,"geoloc":{"type":"Point","coordinates":[-122.396744,37.780134]}},{"country_code":"USA","name":"CastTV","founded_year":2006,"category_code":"games_video","latitude":37.780716,"longitude":-122.393913,"total_money_raised":"$3.1M","total_offices":1,"geoloc":{"type":"Point","coordinates":[-122.393913,37.780716]}},{"country_code":"CAN","name":"EQO","founded_year":2006,"category_code":"mobile","latitude":49.263588,"longitude":-123.138565,"total_money_raised":"$12.5M","total_offices":1,"geoloc":{"type":"Point","coordinates":[-123.138565,49.263588]}},{"country_code":"RUS","name":"AllofMP3","founded_year":2000,"category_code":"games_video","latitude":55.755786,"longitude":37.617633,"total_money_raised":"$0","total_offices":1,"geoloc":{"type":"Point","coordinates":[37.617633,55.755786]}},{"country_code":"IRL","name":"Steorn","founded_year":2000,"category_code":"web","latitude":53.354997,"longitude":-6.229255,"total_money_raised":"$0","total_offices":1,"geoloc":{"type":"Point","coordinates":[-6.229255,53.354997]}},{"country_code":"USA","name":"Funny Or Die","founded_year":2007,"category_code":"games_video","latitude":37.421621,"longitude":-122.137444,"total_money_raised":"$18M","total_offices":1,"geoloc":{"type":"Point","coordinates":[-122.137444,37.421621]}},{"country_code":"DEU","name":"SellABand","founded_year":2006,"category_code":"games_video","latitude":51.808933,"longitude":6.553452,"total_money_raised":"$5M","total_offices":1,"geoloc":{"type":"Point","coordinates":[6.553452,51.808933]}},{"country_code":"USA","name":"MeeVee","founded_year":2000,"category_code":"games_video","latitude":37.590339,"longitude":-122.341715,"total_money_raised":"$25M","total_offices":1,"geoloc":{"type":"Point","coordinates":[-122.341715,37.590339]}},{"country_code":"USA","name":"ClipBlast!","founded_year":2005,"category_code":"web","latitude":34.155211,"longitude":-118.756618,"total_money_raised":"$0","total_offices":1,"geoloc":{"type":"Point","coordinates":[-118.756618,34.155211]}},{"country_code":"FRA","name":"Zlio","founded_year":2005,"category_code":"ecommerce","latitude":48.862825,"longitude":2.381836,"total_money_raised":"$4M","total_offices":1,"geoloc":{"type":"Point","coordinates":[2.381836,48.862825]}},{"country_code":"USA","name":"blinkx","founded_year":2004,"category_code":"games_video","latitude":37.793819,"longitude":-122.395089,"total_money_raised":"$0","total_offices":1,"geoloc":{"type":"Point","coordinates":[-122.395089,37.793819]}},{"country_code":"USA","name":"Spotplex","founded_year":2007,"category_code":"web","latitude":37.380101,"longitude":-121.940749,"total_money_raised":"$450k","total_offices":1,"geoloc":{"type":"Point","coordinates":[-121.940749,37.380101]}},{"country_code":"FIN","name":"Jaiku","founded_year":2006,"category_code":"mobile","latitude":60.16377,"longitude":24.93105,"total_money_raised":"$0","total_offices":1,"geoloc":{"type":"Point","coordinates":[24.93105,60.16377]}},{"country_code":"USA","name":"TripUp","founded_year":2006,"category_code":"web","latitude":34.052187,"longitude":-118.243425,"total_money_raised":"$0","total_offices":1,"geoloc":{"type":"Point","coordinates":[-118.243425,34.052187]}},{"country_code":"NLD","name":"Wakoopa","founded_year":2007,"category_code":"web","latitude":52.3745228,"longitude":4.8948623,"total_money_raised":"$1M","total_offices":1,"geoloc":{"type":"Point","coordinates":[4.8948623,52.3745228]}},{"country_code":"NLD","name":"Fleck","founded_year":2006,"category_code":"web","latitude":52.375595,"longitude":4.908556,"total_money_raised":"\u20ac225k","total_offices":1,"geoloc":{"type":"Point","coordinates":[4.908556,52.375595]}},{"country_code":"GBR","name":"Zamzar","founded_year":2006,"category_code":"web","latitude":50.9444598,"longitude":-1.3610845,"total_money_raised":"$0","total_offices":1,"geoloc":{"type":"Point","coordinates":[-1.3610845,50.9444598]}},{"country_code":"USA","name":"Coghead","founded_year":2003,"category_code":"web","latitude":37.476479,"longitude":-122.221717,"total_money_raised":"$11.2M","total_offices":1,"geoloc":{"type":"Point","coordinates":[-122.221717,37.476479]}},{"country_code":"USA","name":"Zooomr","founded_year":2006,"category_code":"web","latitude":37.775196,"longitude":-122.419204,"total_money_raised":"$50k","total_offices":1,"geoloc":{"type":"Point","coordinates":[-122.419204,37.775196]}},{"country_code":"USA","name":"coRank","founded_year":2007,"category_code":"web","latitude":37.36965,"longitude":-122.02421,"total_money_raised":"$0","total_offices":1,"geoloc":{"type":"Point","coordinates":[-122.02421,37.36965]}},{"country_code":"USA","name":"ConVerdge","founded_year":2006,"category_code":"enterprise","latitude":34.0126379,"longitude":-118.495155,"total_money_raised":"$0","total_offices":1,"geoloc":{"type":"Point","coordinates":[-118.495155,34.0126379]}},{"country_code":"USA","name":"Pageflakes","founded_year":2006,"category_code":"web","latitude":37.758113,"longitude":-122.414689,"total_money_raised":"$4.1M","total_offices":1,"geoloc":{"type":"Point","coordinates":[-122.414689,37.758113]}},{"country_code":"USA","name":"KickApps","founded_year":2004,"category_code":"enterprise","latitude":40.7516611,"longitude":-73.9843328,"total_money_raised":"$32M","total_offices":4,"geoloc":{"type":"Point","coordinates":[-73.9843328,40.7516611]}},{"country_code":"USA","name":"KickApps","founded_year":2004,"category_code":"enterprise","latitude":33.991101,"longitude":-118.468707,"total_money_raised":"$32M","total_offices":4,"geoloc":{"type":"Point","coordinates":[-118.468707,33.991101]}},{"country_code":"USA","name":"KickApps","founded_year":2004,"category_code":"enterprise","latitude":37.7891086,"longitude":-122.4016144,"total_money_raised":"$32M","total_offices":4,"geoloc":{"type":"Point","coordinates":[-122.4016144,37.7891086]}},{"country_code":"GBR","name":"KickApps","founded_year":2004,"category_code":"enterprise","latitude":51.5094731,"longitude":-0.1356235,"total_money_raised":"$32M","total_offices":4,"geoloc":{"type":"Point","coordinates":[-0.1356235,51.5094731]}},{"country_code":"USA","name":"Instructables","founded_year":2005,"category_code":"web","latitude":37.7791761,"longitude":-122.4058887,"total_money_raised":"$0","total_offices":1,"geoloc":{"type":"Point","coordinates":[-122.4058887,37.7791761]}},{"country_code":"USA","name":"RockYou","founded_year":2005,"category_code":"games_video","latitude":37.484619,"longitude":-122.206893,"total_money_raised":"$136M","total_offices":1,"geoloc":{"type":"Point","coordinates":[-122.206893,37.484619]}},{"country_code":"USA","name":"Bebo","founded_year":2005,"category_code":"web","latitude":37.782103,"longitude":-122.401116,"total_money_raised":"$15M","total_offices":1,"geoloc":{"type":"Point","coordinates":[-122.401116,37.782103]}},{"country_code":"USA","name":"Flickr","founded_year":2004,"category_code":"web","latitude":37.418531,"longitude":-122.025485,"total_money_raised":"$0","total_offices":1,"geoloc":{"type":"Point","coordinates":[-122.025485,37.418531]}},{"country_code":"USA","name":"TripHub","founded_year":2005,"category_code":"web","latitude":47.614653,"longitude":-122.338793,"total_money_raised":"$0","total_offices":1,"geoloc":{"type":"Point","coordinates":[-122.338793,47.614653]}},{"country_code":"USA","name":"WeFi","founded_year":2006,"category_code":"mobile","latitude":37.09024,"longitude":-95.712891,"total_money_raised":"$10M","total_offices":1,"geoloc":{"type":"Point","coordinates":[-95.712891,37.09024]}},{"country_code":"USA","name":"FeedBurner","founded_year":2004,"category_code":"web","latitude":41.889474,"longitude":-87.628912,"total_money_raised":"$8M","total_offices":1,"geoloc":{"type":"Point","coordinates":[-87.628912,41.889474]}},{"country_code":"USA","name":"CrowdVine","founded_year":2007,"category_code":"web","latitude":37.90077,"longitude":-122.511687,"total_money_raised":"$0","total_offices":1,"geoloc":{"type":"Point","coordinates":[-122.511687,37.90077]}},{"country_code":"FRA","name":"TVtrip","founded_year":2007,"category_code":"web","latitude":48.856667,"longitude":2.350987,"total_money_raised":"$13.8M","total_offices":1,"geoloc":{"type":"Point","coordinates":[2.350987,48.856667]}},{"country_code":"USA","name":"TheFind","founded_year":2006,"category_code":"ecommerce","latitude":37.391502,"longitude":-122.073463,"total_money_raised":"$26M","total_offices":1,"geoloc":{"type":"Point","coordinates":[-122.073463,37.391502]}},{"country_code":"USA","name":"Dogster","founded_year":2004,"category_code":"web","latitude":37.762681,"longitude":-122.400909,"total_money_raised":"$1M","total_offices":1,"geoloc":{"type":"Point","coordinates":[-122.400909,37.762681]}},{"country_code":"USA","name":"Sway","founded_year":2004,"category_code":"advertising","latitude":43.090756,"longitude":-89.522805,"total_money_raised":"$2M","total_offices":1,"geoloc":{"type":"Point","coordinates":[-89.522805,43.090756]}},{"country_code":"USA","name":"adBrite","founded_year":2003,"category_code":"advertising","latitude":37.779026,"longitude":-122.40184,"total_money_raised":"$40.4M","total_offices":1,"geoloc":{"type":"Point","coordinates":[-122.40184,37.779026]}},{"country_code":"FRA","name":"WatZatSong","founded_year":2006,"category_code":"web","latitude":48.866323,"longitude":2.381514,"total_money_raised":"$0","total_offices":1,"geoloc":{"type":"Point","coordinates":[2.381514,48.866323]}},{"country_code":"USA","name":"Loomia","founded_year":2004,"category_code":"web","latitude":37.796396,"longitude":-122.404869,"total_money_raised":"$7.5M","total_offices":1,"geoloc":{"type":"Point","coordinates":[-122.404869,37.796396]}},{"country_code":"USA","name":"Eventbrite","founded_year":2006,"category_code":"web","latitude":37.779507,"longitude":-122.39071,"total_money_raised":"$140M","total_offices":1,"geoloc":{"type":"Point","coordinates":[-122.39071,37.779507]}},{"country_code":"USA","name":"Newsvine","founded_year":2005,"category_code":"web","latitude":47.618599,"longitude":-122.358484,"total_money_raised":"$1.25M","total_offices":1,"geoloc":{"type":"Point","coordinates":[-122.358484,47.618599]}},{"country_code":"USA","name":"FlickIM","founded_year":2006,"category_code":"mobile","latitude":37.870744,"longitude":-122.269259,"total_money_raised":"$1.6M","total_offices":1,"geoloc":{"type":"Point","coordinates":[-122.269259,37.870744]}},{"country_code":"USA","name":"Terabitz","founded_year":2006,"category_code":"web","latitude":37.437328,"longitude":-122.159928,"total_money_raised":"$10M","total_offices":1,"geoloc":{"type":"Point","coordinates":[-122.159928,37.437328]}},{"country_code":"USA","name":"iLike","founded_year":2002,"category_code":"games_video","latitude":47.615313,"longitude":-122.323408,"total_money_raised":"$16.5M","total_offices":1,"geoloc":{"type":"Point","coordinates":[-122.323408,47.615313]}},{"country_code":"USA","name":"Conduit","founded_year":2005,"category_code":"advertising","latitude":37.561877,"longitude":-122.325248,"total_money_raised":"$110M","total_offices":1,"geoloc":{"type":"Point","coordinates":[-122.325248,37.561877]}},{"country_code":"ISR","name":"Go2Web20","founded_year":2006,"category_code":"web","latitude":32.0554,"longitude":34.7595,"total_money_raised":"$0","total_offices":1,"geoloc":{"type":"Point","coordinates":[34.7595,32.0554]}},{"country_code":"CHE","name":"coComment","founded_year":2006,"category_code":"web","latitude":46.20381,"longitude":6.139959,"total_money_raised":"$5.6M","total_offices":1,"geoloc":{"type":"Point","coordinates":[6.139959,46.20381]}},{"country_code":"USA","name":"TechnologyGuide","founded_year":2001,"category_code":"web","latitude":39.06685,"longitude":-84.351532,"total_money_raised":"$0","total_offices":1,"geoloc":{"type":"Point","coordinates":[-84.351532,39.06685]}},{"country_code":"USA","name":"Hotelicopter","founded_year":2006,"category_code":"web","latitude":38.030823,"longitude":-78.48158,"total_money_raised":"$5M","total_offices":1,"geoloc":{"type":"Point","coordinates":[-78.48158,38.030823]}},{"country_code":"USA","name":"Kaboodle","founded_year":2005,"category_code":"ecommerce","latitude":37.382162,"longitude":-122.036301,"total_money_raised":"$5M","total_offices":1,"geoloc":{"type":"Point","coordinates":[-122.036301,37.382162]}},{"country_code":"USA","name":"Seesmic","founded_year":2007,"category_code":"web","latitude":37.775196,"longitude":-122.419204,"total_money_raised":"$16M","total_offices":1,"geoloc":{"type":"Point","coordinates":[-122.419204,37.775196]}},{"country_code":"USA","name":"Techmeme","founded_year":2004,"category_code":"web","latitude":37.7618242,"longitude":-122.3985871,"total_money_raised":"$0","total_offices":1,"geoloc":{"type":"Point","coordinates":[-122.3985871,37.7618242]}},{"country_code":"USA","name":"Zvents","founded_year":2005,"category_code":"web","latitude":37.553121,"longitude":-122.301534,"total_money_raised":"$31.2M","total_offices":1,"geoloc":{"type":"Point","coordinates":[-122.301534,37.553121]}},{"country_code":"USA","name":"oDesk","founded_year":2005,"category_code":"web","latitude":37.479952,"longitude":-122.178557,"total_money_raised":"$44M","total_offices":1,"geoloc":{"type":"Point","coordinates":[-122.178557,37.479952]}},{"country_code":"USA","name":"Ujogo","founded_year":2007,"category_code":"web","latitude":37.76785,"longitude":-122.392861,"total_money_raised":"$0","total_offices":1,"geoloc":{"type":"Point","coordinates":[-122.392861,37.76785]}},{"country_code":"USA","name":"stylediary","founded_year":2004,"category_code":"web","latitude":34.070436,"longitude":-118.350486,"total_money_raised":"$0","total_offices":1,"geoloc":{"type":"Point","coordinates":[-118.350486,34.070436]}},{"country_code":"USA","name":"Gumiyo","founded_year":2006,"category_code":"web","latitude":34.184598,"longitude":-118.601532,"total_money_raised":"$0","total_offices":1,"geoloc":{"type":"Point","coordinates":[-118.601532,34.184598]}},{"country_code":"USA","name":"GoingOn","founded_year":2008,"category_code":"software","latitude":37.782263,"longitude":-122.392142,"total_money_raised":"$8.5M","total_offices":1,"geoloc":{"type":"Point","coordinates":[-122.392142,37.782263]}},{"country_code":"USA","name":"MyPublicInfo","founded_year":2004,"category_code":"web","latitude":38.897428,"longitude":-77.072003,"total_money_raised":"$0","total_offices":1,"geoloc":{"type":"Point","coordinates":[-77.072003,38.897428]}},{"country_code":"USA","name":"Checkster","founded_year":2006,"category_code":"web","latitude":37.905544,"longitude":-122.547445,"total_money_raised":"$0","total_offices":1,"geoloc":{"type":"Point","coordinates":[-122.547445,37.905544]}},{"country_code":"USA","name":"Flixster","founded_year":2006,"category_code":"web","latitude":37.766909,"longitude":-122.406676,"total_money_raised":"$7.18M","total_offices":1,"geoloc":{"type":"Point","coordinates":[-122.406676,37.766909]}},{"country_code":"USA","name":"Socialtext","founded_year":2002,"category_code":"enterprise","latitude":37.442949,"longitude":-122.1615,"total_money_raised":"$46.8M","total_offices":1,"geoloc":{"type":"Point","coordinates":[-122.1615,37.442949]}},{"country_code":"USA","name":"spigit","founded_year":2006,"category_code":"software","latitude":37.6637279,"longitude":-121.8731805,"total_money_raised":"$55.6M","total_offices":3,"geoloc":{"type":"Point","coordinates":[-121.8731805,37.6637279]}},{"country_code":"USA","name":"spigit","founded_year":2006,"category_code":"software","latitude":38.9590083,"longitude":-77.3592746,"total_money_raised":"$55.6M","total_offices":3,"geoloc":{"type":"Point","coordinates":[-77.3592746,38.9590083]}},{"country_code":"GBR","name":"spigit","founded_year":2006,"category_code":"software","latitude":51.5170385,"longitude":-0.1394759,"total_money_raised":"$55.6M","total_offices":3,"geoloc":{"type":"Point","coordinates":[-0.1394759,51.5170385]}},{"country_code":"GBR","name":"ConnectMeAnywhere","founded_year":2006,"category_code":"web","latitude":51.514935,"longitude":-0.205349,"total_money_raised":"$0","total_offices":1,"geoloc":{"type":"Point","coordinates":[-0.205349,51.514935]}},{"country_code":"USA","name":"Bazaarvoice","founded_year":2005,"category_code":"software","latitude":30.407545,"longitude":-97.717667,"total_money_raised":"$131M","total_offices":1,"geoloc":{"type":"Point","coordinates":[-97.717667,30.407545]}},{"country_code":"USA","name":"Spreadshirt","founded_year":2002,"category_code":"advertising","latitude":40.437985,"longitude":-80.004195,"total_money_raised":"$12.7M","total_offices":1,"geoloc":{"type":"Point","coordinates":[-80.004195,40.437985]}},{"country_code":"ITA","name":"Clipperz","founded_year":2005,"category_code":"web","latitude":44.418166,"longitude":11.978686,"total_money_raised":"$0","total_offices":1,"geoloc":{"type":"Point","coordinates":[11.978686,44.418166]}},{"country_code":"USA","name":"hi5","founded_year":2003,"category_code":"games_video","latitude":37.788668,"longitude":-122.400558,"total_money_raised":"$52M","total_offices":1,"geoloc":{"type":"Point","coordinates":[-122.400558,37.788668]}},{"country_code":"USA","name":"ScanScout","founded_year":2005,"category_code":"advertising","latitude":42.340889,"longitude":-71.051931,"total_money_raised":"$17.5M","total_offices":3,"geoloc":{"type":"Point","coordinates":[-71.051931,42.340889]}},{"country_code":"USA","name":"ScanScout","founded_year":2005,"category_code":"advertising","latitude":40.739833,"longitude":-73.993158,"total_money_raised":"$17.5M","total_offices":3,"geoloc":{"type":"Point","coordinates":[-73.993158,40.739833]}},{"country_code":"USA","name":"ScanScout","founded_year":2005,"category_code":"advertising","latitude":34.050887,"longitude":-118.459995,"total_money_raised":"$17.5M","total_offices":3,"geoloc":{"type":"Point","coordinates":[-118.459995,34.050887]}},{"country_code":"USA","name":"Cerado","founded_year":2002,"category_code":"web","latitude":37.774321,"longitude":-122.415375,"total_money_raised":"$0","total_offices":1,"geoloc":{"type":"Point","coordinates":[-122.415375,37.774321]}},{"country_code":"USA","name":"Jaxtr","founded_year":2005,"category_code":"mobile","latitude":37.451026,"longitude":-122.18676,"total_money_raised":"$21.5M","total_offices":1,"geoloc":{"type":"Point","coordinates":[-122.18676,37.451026]}},{"country_code":"USA","name":"introNetworks","founded_year":2003,"category_code":"web","latitude":34.42071,"longitude":-119.641821,"total_money_raised":"$2.7M","total_offices":1,"geoloc":{"type":"Point","coordinates":[-119.641821,34.42071]}},{"country_code":"USA","name":"Respectance","founded_year":2006,"category_code":"web","latitude":37.55909,"longitude":-122.321836,"total_money_raised":"$1.75M","total_offices":1,"geoloc":{"type":"Point","coordinates":[-122.321836,37.55909]}},{"country_code":"USA","name":"GoLightly","founded_year":2005,"category_code":"software","latitude":37.898575,"longitude":-122.537302,"total_money_raised":"$0","total_offices":1,"geoloc":{"type":"Point","coordinates":[-122.537302,37.898575]}},{"country_code":"USA","name":"Kiptronic","founded_year":2005,"category_code":"advertising","latitude":37.792394,"longitude":-122.402349,"total_money_raised":"$7.3M","total_offices":1,"geoloc":{"type":"Point","coordinates":[-122.402349,37.792394]}},{"country_code":"USA","name":"PeerMe","founded_year":2004,"category_code":"games_video","latitude":37.419819,"longitude":-122.090188,"total_money_raised":"$5M","total_offices":1,"geoloc":{"type":"Point","coordinates":[-122.090188,37.419819]}},{"country_code":"USA","name":"FeVote","founded_year":2007,"category_code":"web","latitude":37.779392,"longitude":-122.417928,"total_money_raised":"$0","total_offices":1,"geoloc":{"type":"Point","coordinates":[-122.417928,37.779392]}},{"country_code":"USA","name":"JumpBox","founded_year":2006,"category_code":"software","latitude":33.429864,"longitude":-111.944967,"total_money_raised":"$0","total_offices":1,"geoloc":{"type":"Point","coordinates":[-111.944967,33.429864]}},{"country_code":"USA","name":"Vuze","founded_year":2005,"category_code":"games_video","latitude":37.4858654,"longitude":-122.2262606,"total_money_raised":"$34M","total_offices":1,"geoloc":{"type":"Point","coordinates":[-122.2262606,37.4858654]}},{"country_code":"USA","name":"Phonezoo","founded_year":2006,"category_code":"web","latitude":37.386376,"longitude":-121.991471,"total_money_raised":"$2.06M","total_offices":1,"geoloc":{"type":"Point","coordinates":[-121.991471,37.386376]}},{"country_code":"USA","name":"Relationals","founded_year":2007,"category_code":"web","latitude":37.384651,"longitude":-121.992132,"total_money_raised":"$0","total_offices":1,"geoloc":{"type":"Point","coordinates":[-121.992132,37.384651]}},{"country_code":"USA","name":"Wishpot","founded_year":2006,"category_code":"ecommerce","latitude":47.620716,"longitude":-122.347533,"total_money_raised":"$1.3M","total_offices":1,"geoloc":{"type":"Point","coordinates":[-122.347533,47.620716]}},{"country_code":"USA","name":"PodTech","founded_year":2005,"category_code":"games_video","latitude":37.408256,"longitude":-122.154176,"total_money_raised":"$7.5M","total_offices":1,"geoloc":{"type":"Point","coordinates":[-122.154176,37.408256]}},{"country_code":"USA","name":"DOmedia","founded_year":2007,"category_code":"advertising","latitude":39.967704,"longitude":-83.005038,"total_money_raised":"$0","total_offices":1,"geoloc":{"type":"Point","coordinates":[-83.005038,39.967704]}},{"country_code":"CAN","name":"NowPublic","founded_year":2005,"category_code":"web","latitude":49.283376,"longitude":-123.103986,"total_money_raised":"$12M","total_offices":1,"geoloc":{"type":"Point","coordinates":[-123.103986,49.283376]}},{"country_code":"USA","name":"Nononina","founded_year":2007,"category_code":"web","latitude":37.269175,"longitude":-119.306607,"total_money_raised":"$0","total_offices":1,"geoloc":{"type":"Point","coordinates":[-119.306607,37.269175]}},{"country_code":"USA","name":"Crackle","founded_year":2004,"category_code":"games_video","latitude":34.017506,"longitude":-118.401579,"total_money_raised":"$1.75M","total_offices":1,"geoloc":{"type":"Point","coordinates":[-118.401579,34.017506]}},{"country_code":"USA","name":"Clipmarks","founded_year":2003,"category_code":"photo_video","latitude":40.757929,"longitude":-73.985506,"total_money_raised":"$0","total_offices":1,"geoloc":{"type":"Point","coordinates":[-73.985506,40.757929]}},{"country_code":"USA","name":"Forbes","founded_year":2007,"category_code":"web","latitude":40.736416,"longitude":-73.993302,"total_money_raised":"$0","total_offices":1,"geoloc":{"type":"Point","coordinates":[-73.993302,40.736416]}},{"country_code":"AUS","name":"Boonex","founded_year":2000,"category_code":"software","latitude":-33.722577,"longitude":150.981801,"total_money_raised":"$0","total_offices":1,"geoloc":{"type":"Point","coordinates":[150.981801,-33.722577]}},{"country_code":"USA","name":"IntenseDebate","founded_year":2006,"category_code":"web","latitude":40.010492,"longitude":-105.276843,"total_money_raised":"$515k","total_offices":1,"geoloc":{"type":"Point","coordinates":[-105.276843,40.010492]}},{"country_code":"USA","name":"Reddit","founded_year":2005,"category_code":"web","latitude":37.780883,"longitude":-122.395257,"total_money_raised":"$100k","total_offices":1,"geoloc":{"type":"Point","coordinates":[-122.395257,37.780883]}},{"country_code":"SWE","name":"Rebtel","founded_year":2006,"category_code":"mobile","latitude":59.3167843,"longitude":18.1582777,"total_money_raised":"$20M","total_offices":1,"geoloc":{"type":"Point","coordinates":[18.1582777,59.3167843]}},{"country_code":"USA","name":"BuddyTV","founded_year":2005,"category_code":"games_video","latitude":47.61968,"longitude":-122.356756,"total_money_raised":"$10.6M","total_offices":1,"geoloc":{"type":"Point","coordinates":[-122.356756,47.61968]}},{"country_code":"BRA","name":"boo-box","founded_year":2007,"category_code":"advertising","latitude":-23.558584,"longitude":-46.679287,"total_money_raised":"$300k","total_offices":1,"geoloc":{"type":"Point","coordinates":[-46.679287,-23.558584]}},{"country_code":"USA","name":"Retrevo","founded_year":2006,"category_code":"web","latitude":37.368594,"longitude":-122.034021,"total_money_raised":"$11.9M","total_offices":1,"geoloc":{"type":"Point","coordinates":[-122.034021,37.368594]}},{"country_code":"USA","name":"Buxfer","founded_year":2007,"category_code":"web","latitude":37.400465,"longitude":-122.073003,"total_money_raised":"$315k","total_offices":1,"geoloc":{"type":"Point","coordinates":[-122.073003,37.400465]}},{"country_code":"USA","name":"Tangler","founded_year":2006,"category_code":"web","latitude":37.386665,"longitude":-122.084171,"total_money_raised":"$1.5M","total_offices":1,"geoloc":{"type":"Point","coordinates":[-122.084171,37.386665]}},{"country_code":"USA","name":"BillMonk","founded_year":2005,"category_code":"web","latitude":47.620716,"longitude":-122.347533,"total_money_raised":"$0","total_offices":1,"geoloc":{"type":"Point","coordinates":[-122.347533,47.620716]}},{"country_code":"USA","name":"TalkPlus","founded_year":2004,"category_code":"web","latitude":37.553743,"longitude":-122.300246,"total_money_raised":"$5.5M","total_offices":1,"geoloc":{"type":"Point","coordinates":[-122.300246,37.553743]}},{"country_code":"USA","name":"obopay","founded_year":2005,"category_code":"mobile","latitude":37.524729,"longitude":-122.258037,"total_money_raised":"$145M","total_offices":1,"geoloc":{"type":"Point","coordinates":[-122.258037,37.524729]}},{"country_code":"ISR","name":"MeeMix","founded_year":2006,"category_code":"web","latitude":32.0554,"longitude":34.7595,"total_money_raised":"$0","total_offices":1,"geoloc":{"type":"Point","coordinates":[34.7595,32.0554]}},{"country_code":"USA","name":"TextPayMe","founded_year":2005,"category_code":"web","latitude":47.672229,"longitude":-122.115633,"total_money_raised":"$0","total_offices":1,"geoloc":{"type":"Point","coordinates":[-122.115633,47.672229]}},{"country_code":"USA","name":"PermissionTV","founded_year":2005,"category_code":"games_video","latitude":42.417268,"longitude":-71.258466,"total_money_raised":"$9M","total_offices":1,"geoloc":{"type":"Point","coordinates":[-71.258466,42.417268]}},{"country_code":"USA","name":"WebbAlert","founded_year":2007,"category_code":"games_video","latitude":34.052187,"longitude":-118.243425,"total_money_raised":"$0","total_offices":1,"geoloc":{"type":"Point","coordinates":[-118.243425,34.052187]}},{"country_code":"USA","name":"WallStrip","founded_year":2006,"category_code":"games_video","latitude":37.09024,"longitude":-95.712891,"total_money_raised":"$600k","total_offices":1,"geoloc":{"type":"Point","coordinates":[-95.712891,37.09024]}},{"country_code":"USA","name":"IMVU","founded_year":2004,"category_code":"web","latitude":37.3927975,"longitude":-122.0727749,"total_money_raised":"$29M","total_offices":1,"geoloc":{"type":"Point","coordinates":[-122.0727749,37.3927975]}},{"country_code":"USA","name":"Kaneva","founded_year":2004,"category_code":"web","latitude":33.916374,"longitude":-84.350663,"total_money_raised":"$0","total_offices":1,"geoloc":{"type":"Point","coordinates":[-84.350663,33.916374]}},{"country_code":"USA","name":"madKast","founded_year":2007,"category_code":"web","latitude":40.010492,"longitude":-105.276843,"total_money_raised":"$315k","total_offices":1,"geoloc":{"type":"Point","coordinates":[-105.276843,40.010492]}},{"country_code":"USA","name":"Userplane","founded_year":2001,"category_code":"enterprise","latitude":34.01676,"longitude":-118.495566,"total_money_raised":"$0","total_offices":1,"geoloc":{"type":"Point","coordinates":[-118.495566,34.01676]}},{"country_code":"USA","name":"Nirvanix","founded_year":2007,"category_code":"enterprise","latitude":32.877656,"longitude":-117.210595,"total_money_raised":"$70M","total_offices":1,"geoloc":{"type":"Point","coordinates":[-117.210595,32.877656]}},{"country_code":"USA","name":"Scrybe","founded_year":2007,"category_code":"enterprise","latitude":40.270666,"longitude":-74.761403,"total_money_raised":"$1.31M","total_offices":1,"geoloc":{"type":"Point","coordinates":[-74.761403,40.270666]}},{"country_code":"ISR","name":"Aniboom","founded_year":2006,"category_code":"games_video","latitude":31.046051,"longitude":34.851612,"total_money_raised":"$14.5M","total_offices":1,"geoloc":{"type":"Point","coordinates":[34.851612,31.046051]}},{"country_code":"CAN","name":"Webkinz","founded_year":2005,"category_code":"web","latitude":43.76969,"longitude":-79.549577,"total_money_raised":"$0","total_offices":1,"geoloc":{"type":"Point","coordinates":[-79.549577,43.76969]}},{"country_code":"USA","name":"Mokitown","founded_year":2011,"category_code":"web","latitude":37.09024,"longitude":-95.712891,"total_money_raised":"$0","total_offices":1,"geoloc":{"type":"Point","coordinates":[-95.712891,37.09024]}},{"country_code":"FIN","name":"Sulake","founded_year":2000,"category_code":"web","latitude":60.165166,"longitude":24.945937,"total_money_raised":"$0","total_offices":1,"geoloc":{"type":"Point","coordinates":[24.945937,60.165166]}},{"country_code":"USA","name":"Viagogo","founded_year":2005,"category_code":"ecommerce","latitude":51.500152,"longitude":-0.126236,"total_money_raised":"$65M","total_offices":1,"geoloc":{"type":"Point","coordinates":[-0.126236,51.500152]}},{"country_code":"ISR","name":"KnockaTV","founded_year":2007,"category_code":"games_video","latitude":31.046051,"longitude":34.851612,"total_money_raised":"$4.5M","total_offices":1,"geoloc":{"type":"Point","coordinates":[34.851612,31.046051]}},{"country_code":"USA","name":"Millsberry","founded_year":2004,"category_code":"web","latitude":37.09024,"longitude":-95.712891,"total_money_raised":"$0","total_offices":1,"geoloc":{"type":"Point","coordinates":[-95.712891,37.09024]}},{"country_code":"USA","name":"GreatCall","founded_year":2005,"category_code":"mobile","latitude":32.964294,"longitude":-117.265191,"total_money_raised":"$75.3M","total_offices":1,"geoloc":{"type":"Point","coordinates":[-117.265191,32.964294]}},{"country_code":"USA","name":"Echo","founded_year":2007,"category_code":"enterprise","latitude":38.0729365,"longitude":-122.1879633,"total_money_raised":"$4.8M","total_offices":1,"geoloc":{"type":"Point","coordinates":[-122.1879633,38.0729365]}},{"country_code":"USA","name":"Pickle","founded_year":2006,"category_code":"web","latitude":38.892371,"longitude":-77.081732,"total_money_raised":"$0","total_offices":1,"geoloc":{"type":"Point","coordinates":[-77.081732,38.892371]}},{"country_code":"USA","name":"Revver","founded_year":2004,"category_code":"games_video","latitude":34.052187,"longitude":-118.243425,"total_money_raised":"$12.7M","total_offices":1,"geoloc":{"type":"Point","coordinates":[-118.243425,34.052187]}},{"country_code":"USA","name":"Metacafe","founded_year":2003,"category_code":"games_video","latitude":37.437328,"longitude":-122.159928,"total_money_raised":"$50M","total_offices":1,"geoloc":{"type":"Point","coordinates":[-122.159928,37.437328]}},{"country_code":"USA","name":"Flock","founded_year":2005,"category_code":"web","latitude":37.491356,"longitude":-122.228843,"total_money_raised":"$28.3M","total_offices":1,"geoloc":{"type":"Point","coordinates":[-122.228843,37.491356]}},{"country_code":"USA","name":"Kontera","founded_year":2003,"category_code":"advertising","latitude":37.767575,"longitude":-122.411157,"total_money_raised":"$36.1M","total_offices":1,"geoloc":{"type":"Point","coordinates":[-122.411157,37.767575]}},{"country_code":"ISR","name":"Sportingo","founded_year":2006,"category_code":"web","latitude":17.08881,"longitude":-96.76492,"total_money_raised":"$3.2M","total_offices":1,"geoloc":{"type":"Point","coordinates":[-96.76492,17.08881]}},{"country_code":"USA","name":"MindTouch","founded_year":2004,"category_code":"enterprise","latitude":32.720656,"longitude":-117.167831,"total_money_raised":"$0","total_offices":1,"geoloc":{"type":"Point","coordinates":[-117.167831,32.720656]}},{"country_code":"USA","name":"Splashup","founded_year":2007,"category_code":"web","latitude":37.09024,"longitude":-95.712891,"total_money_raised":"$10k","total_offices":1,"geoloc":{"type":"Point","coordinates":[-95.712891,37.09024]}},{"country_code":"USA","name":"Sampa","founded_year":2005,"category_code":"web","latitude":47.682233,"longitude":-122.135521,"total_money_raised":"$1.31M","total_offices":1,"geoloc":{"type":"Point","coordinates":[-122.135521,47.682233]}},{"country_code":"USA","name":"Weebly","founded_year":2006,"category_code":"web","latitude":37.795555,"longitude":-122.400729,"total_money_raised":"$670k","total_offices":1,"geoloc":{"type":"Point","coordinates":[-122.400729,37.795555]}},{"country_code":"JPN","name":"Six Apart","founded_year":2001,"category_code":"enterprise","latitude":35.6725213,"longitude":139.7326754,"total_money_raised":"$22.6M","total_offices":1,"geoloc":{"type":"Point","coordinates":[139.7326754,35.6725213]}},{"country_code":"USA","name":"Kongregate","founded_year":2006,"category_code":"games_video","latitude":37.786942,"longitude":-122.401245,"total_money_raised":"$19M","total_offices":1,"geoloc":{"type":"Point","coordinates":[-122.401245,37.786942]}},{"country_code":"USA","name":"BitTorrent","founded_year":2004,"category_code":"web","latitude":37.790998,"longitude":-122.394668,"total_money_raised":"$40.8M","total_offices":1,"geoloc":{"type":"Point","coordinates":[-122.394668,37.790998]}},{"country_code":"USA","name":"DanceJam","founded_year":2007,"category_code":"games_video","latitude":37.781557,"longitude":-122.407959,"total_money_raised":"$4.5M","total_offices":1,"geoloc":{"type":"Point","coordinates":[-122.407959,37.781557]}},{"country_code":"USA","name":"Inneractive","founded_year":2007,"category_code":"advertising","latitude":37.5646055,"longitude":-122.3229235,"total_money_raised":"$8.5M","total_offices":1,"geoloc":{"type":"Point","coordinates":[-122.3229235,37.5646055]}},{"country_code":"USA","name":"Bountii","founded_year":2007,"category_code":"ecommerce","latitude":37.437328,"longitude":-122.159928,"total_money_raised":"$15k","total_offices":1,"geoloc":{"type":"Point","coordinates":[-122.159928,37.437328]}},{"country_code":"USA","name":"Filtrbox","founded_year":2007,"category_code":"web","latitude":40.010492,"longitude":-105.276843,"total_money_raised":"$1.92M","total_offices":1,"geoloc":{"type":"Point","coordinates":[-105.276843,40.010492]}},{"country_code":"USA","name":"SlapVid","founded_year":2007,"category_code":"games_video","latitude":40.445009,"longitude":-79.948563,"total_money_raised":"$0","total_offices":1,"geoloc":{"type":"Point","coordinates":[-79.948563,40.445009]}},{"country_code":"USA","name":"Eventbee","founded_year":2003,"category_code":"web","latitude":37.383779,"longitude":-122.007172,"total_money_raised":"$0","total_offices":1,"geoloc":{"type":"Point","coordinates":[-122.007172,37.383779]}},{"country_code":"USA","name":"Cloudant","founded_year":2008,"category_code":"enterprise","latitude":42.35892,"longitude":-71.05781,"total_money_raised":"$18.3M","total_offices":1,"geoloc":{"type":"Point","coordinates":[-71.05781,42.35892]}},{"country_code":"USA","name":"GoFish","founded_year":2003,"category_code":"games_video","latitude":37.09024,"longitude":-95.712891,"total_money_raised":"$24M","total_offices":1,"geoloc":{"type":"Point","coordinates":[-95.712891,37.09024]}},{"country_code":"USA","name":"Fathom Online","founded_year":2002,"category_code":"advertising","latitude":37.775196,"longitude":-122.419204,"total_money_raised":"$6M","total_offices":1,"geoloc":{"type":"Point","coordinates":[-122.419204,37.775196]}},{"country_code":"USA","name":"SuicideGirls","founded_year":2001,"category_code":"web","latitude":34.062262,"longitude":-118.348198,"total_money_raised":"$0","total_offices":1,"geoloc":{"type":"Point","coordinates":[-118.348198,34.062262]}},{"country_code":"USA","name":"BlueLithium","founded_year":2004,"category_code":"advertising","latitude":37.32052,"longitude":-121.948399,"total_money_raised":"$11.5M","total_offices":1,"geoloc":{"type":"Point","coordinates":[-121.948399,37.32052]}},{"country_code":"USA","name":"ContextWeb","founded_year":2000,"category_code":"analytics","latitude":40.71014,"longitude":-74.010808,"total_money_raised":"$63.5M","total_offices":1,"geoloc":{"type":"Point","coordinates":[-74.010808,40.71014]}},{"country_code":"USA","name":"Goowy","founded_year":2004,"category_code":"web","latitude":32.71537,"longitude":-117.163353,"total_money_raised":"$0","total_offices":1,"geoloc":{"type":"Point","coordinates":[-117.163353,32.71537]}},{"country_code":"USA","name":"A9","founded_year":2003,"category_code":"web","latitude":37.444554,"longitude":-122.164511,"total_money_raised":"$0","total_offices":1,"geoloc":{"type":"Point","coordinates":[-122.164511,37.444554]}},{"country_code":"USA","name":"Doostang","founded_year":2005,"category_code":"web","latitude":37.427235,"longitude":-122.145783,"total_money_raised":"$5.75M","total_offices":1,"geoloc":{"type":"Point","coordinates":[-122.145783,37.427235]}},{"country_code":"USA","name":"Docstoc","founded_year":2007,"category_code":"web","latitude":34.018275,"longitude":-118.495025,"total_money_raised":"$4M","total_offices":1,"geoloc":{"type":"Point","coordinates":[-118.495025,34.018275]}},{"country_code":"USA","name":"Vlingo","founded_year":2006,"category_code":"mobile","latitude":42.372912,"longitude":-71.118999,"total_money_raised":"$26.5M","total_offices":1,"geoloc":{"type":"Point","coordinates":[-71.118999,42.372912]}},{"country_code":"USA","name":"DotBlu","founded_year":2007,"category_code":"web","latitude":37.09024,"longitude":-95.712891,"total_money_raised":"$2.25M","total_offices":1,"geoloc":{"type":"Point","coordinates":[-95.712891,37.09024]}},{"country_code":"USA","name":"Mevio","founded_year":2004,"category_code":"games_video","latitude":37.782263,"longitude":-122.392142,"total_money_raised":"$48.9M","total_offices":1,"geoloc":{"type":"Point","coordinates":[-122.392142,37.782263]}},{"country_code":"USA","name":"Shock Treatment Management","founded_year":2004,"category_code":"web","latitude":47.610332,"longitude":-122.339859,"total_money_raised":"$4M","total_offices":1,"geoloc":{"type":"Point","coordinates":[-122.339859,47.610332]}},{"country_code":"USA","name":"Pluck","founded_year":2003,"category_code":"web","latitude":30.268735,"longitude":-97.745209,"total_money_raised":"$17M","total_offices":1,"geoloc":{"type":"Point","coordinates":[-97.745209,30.268735]}},{"country_code":"USA","name":"NewsGator","founded_year":2004,"category_code":"enterprise","latitude":39.755092,"longitude":-104.988123,"total_money_raised":"$39.3M","total_offices":1,"geoloc":{"type":"Point","coordinates":[-104.988123,39.755092]}},{"country_code":"USA","name":"BitPass","founded_year":2002,"category_code":"web","latitude":37.40047,"longitude":-122.072981,"total_money_raised":"$13.3M","total_offices":1,"geoloc":{"type":"Point","coordinates":[-122.072981,37.40047]}},{"country_code":"USA","name":"sezmi","founded_year":2007,"category_code":"games_video","latitude":37.524422,"longitude":-122.265869,"total_money_raised":"$78.6M","total_offices":3,"geoloc":{"type":"Point","coordinates":[-122.265869,37.524422]}},{"country_code":"USA","name":"sezmi","founded_year":2007,"category_code":"games_video","latitude":34.017373,"longitude":-118.453218,"total_money_raised":"$78.6M","total_offices":3,"geoloc":{"type":"Point","coordinates":[-118.453218,34.017373]}},{"country_code":"USA","name":"sezmi","founded_year":2007,"category_code":"games_video","latitude":26.207024,"longitude":-80.157296,"total_money_raised":"$78.6M","total_offices":3,"geoloc":{"type":"Point","coordinates":[-80.157296,26.207024]}},{"country_code":"USA","name":"eHarmony","founded_year":2000,"category_code":"web","latitude":34.145946,"longitude":-118.132351,"total_money_raised":"$113M","total_offices":1,"geoloc":{"type":"Point","coordinates":[-118.132351,34.145946]}},{"country_code":"MYS","name":"Friendster","founded_year":2001,"category_code":"web","latitude":3.139003,"longitude":101.686855,"total_money_raised":"$48.5M","total_offices":1,"geoloc":{"type":"Point","coordinates":[101.686855,3.139003]}},{"country_code":"USA","name":"Greystripe","founded_year":2005,"category_code":"advertising","latitude":37.710677,"longitude":-122.39323,"total_money_raised":"$17.6M","total_offices":1,"geoloc":{"type":"Point","coordinates":[-122.39323,37.710677]}},{"country_code":"USA","name":"DAVE Networks","founded_year":2003,"category_code":"web","latitude":33.979033,"longitude":-118.423423,"total_money_raised":"$0","total_offices":2,"geoloc":{"type":"Point","coordinates":[-118.423423,33.979033]}},{"country_code":"USA","name":"DAVE Networks","founded_year":2003,"category_code":"web","latitude":33.979506,"longitude":-118.439787,"total_money_raised":"$0","total_offices":2,"geoloc":{"type":"Point","coordinates":[-118.439787,33.979506]}},{"country_code":"USA","name":"Netblue","founded_year":2002,"category_code":"web","latitude":37.09024,"longitude":-95.712891,"total_money_raised":"$0","total_offices":1,"geoloc":{"type":"Point","coordinates":[-95.712891,37.09024]}},{"country_code":"USA","name":"SpiralFrog","founded_year":2004,"category_code":"games_video","latitude":37.09024,"longitude":-95.712891,"total_money_raised":"$45M","total_offices":1,"geoloc":{"type":"Point","coordinates":[-95.712891,37.09024]}},{"country_code":"USA","name":"TubeMogul","founded_year":2006,"category_code":"advertising","latitude":37.836957,"longitude":-122.286493,"total_money_raised":"$53.2M","total_offices":1,"geoloc":{"type":"Point","coordinates":[-122.286493,37.836957]}},{"country_code":"USA","name":"Espotting","founded_year":2000,"category_code":"advertising","latitude":37.09024,"longitude":-95.712891,"total_money_raised":"$0","total_offices":1,"geoloc":{"type":"Point","coordinates":[-95.712891,37.09024]}},{"country_code":"USA","name":"MocoSpace","founded_year":2005,"category_code":"games_video","latitude":42.350274,"longitude":-71.058768,"total_money_raised":"$10.5M","total_offices":1,"geoloc":{"type":"Point","coordinates":[-71.058768,42.350274]}},{"country_code":"USA","name":"LocaModa","founded_year":2007,"category_code":"advertising","latitude":42.358822,"longitude":-71.104329,"total_money_raised":"$7.9M","total_offices":1,"geoloc":{"type":"Point","coordinates":[-71.104329,42.358822]}},{"country_code":"USA","name":"YouBeQB","founded_year":2008,"category_code":"games_video","latitude":47.597965,"longitude":-122.151158,"total_money_raised":"$0","total_offices":1,"geoloc":{"type":"Point","coordinates":[-122.151158,47.597965]}},{"country_code":"USA","name":"RampedMedia","founded_year":2006,"category_code":"web","latitude":38.618874,"longitude":-90.216499,"total_money_raised":"$0","total_offices":1,"geoloc":{"type":"Point","coordinates":[-90.216499,38.618874]}},{"country_code":"USA","name":"Adknowledge","founded_year":2004,"category_code":"advertising","latitude":39.044694,"longitude":-94.597896,"total_money_raised":"$248M","total_offices":9,"geoloc":{"type":"Point","coordinates":[-94.597896,39.044694]}},{"country_code":"USA","name":"Adknowledge","founded_year":2004,"category_code":"advertising","latitude":40.748901,"longitude":-73.992463,"total_money_raised":"$248M","total_offices":9,"geoloc":{"type":"Point","coordinates":[-73.992463,40.748901]}},{"country_code":"USA","name":"Adknowledge","founded_year":2004,"category_code":"advertising","latitude":37.78866,"longitude":-122.401406,"total_money_raised":"$248M","total_offices":9,"geoloc":{"type":"Point","coordinates":[-122.401406,37.78866]}},{"country_code":"USA","name":"Adknowledge","founded_year":2004,"category_code":"advertising","latitude":26.580095,"longitude":-81.879069,"total_money_raised":"$248M","total_offices":9,"geoloc":{"type":"Point","coordinates":[-81.879069,26.580095]}},{"country_code":"CAN","name":"Adknowledge","founded_year":2004,"category_code":"advertising","latitude":43.6474554,"longitude":-79.3953743,"total_money_raised":"$248M","total_offices":9,"geoloc":{"type":"Point","coordinates":[-79.3953743,43.6474554]}},{"country_code":"GBR","name":"Adknowledge","founded_year":2004,"category_code":"advertising","latitude":51.5114403,"longitude":-0.1229212,"total_money_raised":"$248M","total_offices":9,"geoloc":{"type":"Point","coordinates":[-0.1229212,51.5114403]}},{"country_code":"DEU","name":"Adknowledge","founded_year":2004,"category_code":"advertising","latitude":48.1635092,"longitude":11.5582609,"total_money_raised":"$248M","total_offices":9,"geoloc":{"type":"Point","coordinates":[11.5582609,48.1635092]}},{"country_code":"FRA","name":"Adknowledge","founded_year":2004,"category_code":"advertising","latitude":48.8506065,"longitude":2.3797825,"total_money_raised":"$248M","total_offices":9,"geoloc":{"type":"Point","coordinates":[2.3797825,48.8506065]}},{"country_code":"CHN","name":"Adknowledge","founded_year":2004,"category_code":"advertising","latitude":31.222622,"longitude":121.4770384,"total_money_raised":"$248M","total_offices":9,"geoloc":{"type":"Point","coordinates":[121.4770384,31.222622]}},{"country_code":"USA","name":"Tizra","founded_year":2006,"category_code":"enterprise","latitude":41.841713,"longitude":-71.399771,"total_money_raised":"$850k","total_offices":1,"geoloc":{"type":"Point","coordinates":[-71.399771,41.841713]}},{"country_code":"IND","name":"Minglebox","founded_year":2006,"category_code":"web","latitude":12.971606,"longitude":77.594376,"total_money_raised":"$7M","total_offices":1,"geoloc":{"type":"Point","coordinates":[77.594376,12.971606]}},{"country_code":"SWE","name":"TestFreaks","founded_year":2006,"category_code":"ecommerce","latitude":59.3339908,"longitude":18.0571198,"total_money_raised":"$5.8M","total_offices":1,"geoloc":{"type":"Point","coordinates":[18.0571198,59.3339908]}},{"country_code":"USA","name":"Quattro Wireless","founded_year":2006,"category_code":"advertising","latitude":42.3729,"longitude":-71.248472,"total_money_raised":"$28.3M","total_offices":1,"geoloc":{"type":"Point","coordinates":[-71.248472,42.3729]}},{"country_code":"USA","name":"BlogSigs","founded_year":2007,"category_code":"web","latitude":37.09024,"longitude":-95.712891,"total_money_raised":"$0","total_offices":1,"geoloc":{"type":"Point","coordinates":[-95.712891,37.09024]}},{"country_code":"USA","name":"BBE","founded_year":2004,"category_code":"advertising","latitude":40.7445343,"longitude":-73.9874008,"total_money_raised":"$10M","total_offices":1,"geoloc":{"type":"Point","coordinates":[-73.9874008,40.7445343]}},{"country_code":"USA","name":"Xfire","founded_year":2002,"category_code":"games_video","latitude":34.0184659,"longitude":-118.49863,"total_money_raised":"$7M","total_offices":1,"geoloc":{"type":"Point","coordinates":[-118.49863,34.0184659]}},{"country_code":"USA","name":"SnapTell","founded_year":2006,"category_code":"software","latitude":37.433414,"longitude":-122.128772,"total_money_raised":"$4M","total_offices":1,"geoloc":{"type":"Point","coordinates":[-122.128772,37.433414]}},{"country_code":"GBR","name":"Wonga","founded_year":2007,"category_code":"web","latitude":51.5192042,"longitude":-0.1626103,"total_money_raised":"$101M","total_offices":1,"geoloc":{"type":"Point","coordinates":[-0.1626103,51.5192042]}},{"country_code":"USA","name":"MicroPlace","founded_year":2007,"category_code":"web","latitude":37.775196,"longitude":-122.419204,"total_money_raised":"$0","total_offices":1,"geoloc":{"type":"Point","coordinates":[-122.419204,37.775196]}},{"country_code":"USA","name":"EyeJot","founded_year":2007,"category_code":"web","latitude":47.5999337,"longitude":-122.3276962,"total_money_raised":"$1.15M","total_offices":1,"geoloc":{"type":"Point","coordinates":[-122.3276962,47.5999337]}},{"country_code":"CAN","name":"Contrastream","founded_year":2007,"category_code":"games_video","latitude":43.799511,"longitude":-79.348037,"total_money_raised":"$0","total_offices":1,"geoloc":{"type":"Point","coordinates":[-79.348037,43.799511]}},{"country_code":"USA","name":"Marchex","founded_year":2000,"category_code":"mobile","latitude":47.611201,"longitude":-122.336825,"total_money_raised":"$0","total_offices":1,"geoloc":{"type":"Point","coordinates":[-122.336825,47.611201]}},{"country_code":"USA","name":"OnForce","founded_year":2003,"category_code":"enterprise","latitude":42.47218,"longitude":-71.262508,"total_money_raised":"$26.8M","total_offices":1,"geoloc":{"type":"Point","coordinates":[-71.262508,42.47218]}},{"country_code":"FRA","name":"CrowdSpirit","founded_year":2007,"category_code":"web","latitude":45.206889,"longitude":5.659066,"total_money_raised":"$0","total_offices":1,"geoloc":{"type":"Point","coordinates":[5.659066,45.206889]}},{"country_code":"USA","name":"SayNow","founded_year":2005,"category_code":"mobile","latitude":37.42746,"longitude":-122.143915,"total_money_raised":"$7.5M","total_offices":1,"geoloc":{"type":"Point","coordinates":[-122.143915,37.42746]}},{"country_code":"USA","name":"Crunchyroll","founded_year":2008,"category_code":"games_video","latitude":37.781265,"longitude":-122.393229,"total_money_raised":"$4.8M","total_offices":1,"geoloc":{"type":"Point","coordinates":[-122.393229,37.781265]}},{"country_code":"USA","name":"Daylife","founded_year":2006,"category_code":"enterprise","latitude":40.643438,"longitude":-73.886452,"total_money_raised":"$12.3M","total_offices":1,"geoloc":{"type":"Point","coordinates":[-73.886452,40.643438]}},{"country_code":"BEL","name":"ContactOffice","founded_year":2000,"category_code":"web","latitude":50.796645,"longitude":4.400604,"total_money_raised":"$0","total_offices":1,"geoloc":{"type":"Point","coordinates":[4.400604,50.796645]}},{"country_code":"USA","name":"PixSense","founded_year":2003,"category_code":"mobile","latitude":37.387114,"longitude":-121.973228,"total_money_raised":"$7.4M","total_offices":1,"geoloc":{"type":"Point","coordinates":[-121.973228,37.387114]}},{"country_code":"USA","name":"Behance","founded_year":2006,"category_code":"web","latitude":40.74406,"longitude":-74.004592,"total_money_raised":"$6.5M","total_offices":1,"geoloc":{"type":"Point","coordinates":[-74.004592,40.74406]}},{"country_code":"USA","name":"Yugma","founded_year":2003,"category_code":"games_video","latitude":44.865243,"longitude":-93.4094629,"total_money_raised":"$0","total_offices":1,"geoloc":{"type":"Point","coordinates":[-93.4094629,44.865243]}},{"country_code":"USA","name":"ThemBid","founded_year":2007,"category_code":"ecommerce","latitude":34.099253,"longitude":-117.572967,"total_money_raised":"$0","total_offices":1,"geoloc":{"type":"Point","coordinates":[-117.572967,34.099253]}},{"country_code":"USA","name":"hulu","founded_year":2007,"category_code":"games_video","latitude":34.031276,"longitude":-118.456806,"total_money_raised":"$100M","total_offices":1,"geoloc":{"type":"Point","coordinates":[-118.456806,34.031276]}},{"country_code":"USA","name":"Attributor","founded_year":2005,"category_code":"software","latitude":37.453687,"longitude":-122.228595,"total_money_raised":"$25.2M","total_offices":1,"geoloc":{"type":"Point","coordinates":[-122.228595,37.453687]}},{"country_code":"USA","name":"LineUpNewYork","founded_year":2007,"category_code":"web","latitude":40.753202,"longitude":-73.986771,"total_money_raised":"$0","total_offices":1,"geoloc":{"type":"Point","coordinates":[-73.986771,40.753202]}},{"country_code":"USA","name":"MediaPops","founded_year":2007,"category_code":"games_video","latitude":47.611012,"longitude":-122.333523,"total_money_raised":"$0","total_offices":1,"geoloc":{"type":"Point","coordinates":[-122.333523,47.611012]}},{"country_code":"USA","name":"AdMob","founded_year":2006,"category_code":"advertising","latitude":37.563585,"longitude":-122.324621,"total_money_raised":"$46.8M","total_offices":1,"geoloc":{"type":"Point","coordinates":[-122.324621,37.563585]}},{"country_code":"USA","name":"GotStatus","founded_year":2007,"category_code":"web","latitude":30.34497,"longitude":-97.770174,"total_money_raised":"$0","total_offices":1,"geoloc":{"type":"Point","coordinates":[-97.770174,30.34497]}},{"country_code":"USA","name":"Mixx","founded_year":2007,"category_code":"web","latitude":38.003376,"longitude":-79.420926,"total_money_raised":"$3.5M","total_offices":1,"geoloc":{"type":"Point","coordinates":[-79.420926,38.003376]}},{"country_code":"USA","name":"Kerpoof","founded_year":2006,"category_code":"web","latitude":40.048078,"longitude":-105.38018,"total_money_raised":"$0","total_offices":1,"geoloc":{"type":"Point","coordinates":[-105.38018,40.048078]}},{"country_code":"USA","name":"ITema","founded_year":2007,"category_code":"software","latitude":41.345754,"longitude":-72.105722,"total_money_raised":"$0","total_offices":1,"geoloc":{"type":"Point","coordinates":[-72.105722,41.345754]}},{"country_code":"USA","name":"GENWI","founded_year":2010,"category_code":"mobile","latitude":33.8171,"longitude":-111.9035,"total_money_raised":"$7.1M","total_offices":1,"geoloc":{"type":"Point","coordinates":[-111.9035,33.8171]}},{"country_code":"USA","name":"app2you","founded_year":2006,"category_code":"web","latitude":32.847521,"longitude":-117.274609,"total_money_raised":"$169k","total_offices":1,"geoloc":{"type":"Point","coordinates":[-117.274609,32.847521]}},{"country_code":"FRA","name":"HylioSoft","founded_year":2004,"category_code":"web","latitude":49.1004,"longitude":6.182658,"total_money_raised":"$50k","total_offices":1,"geoloc":{"type":"Point","coordinates":[6.182658,49.1004]}},{"country_code":"USA","name":"Orgoo","founded_year":2005,"category_code":"web","latitude":34.0481711,"longitude":-118.4419012,"total_money_raised":"$0","total_offices":1,"geoloc":{"type":"Point","coordinates":[-118.4419012,34.0481711]}},{"country_code":"USA","name":"Vidoop","founded_year":2006,"category_code":"software","latitude":45.5241278,"longitude":-122.675448,"total_money_raised":"$0","total_offices":1,"geoloc":{"type":"Point","coordinates":[-122.675448,45.5241278]}},{"country_code":"USA","name":"Snoozester","founded_year":2005,"category_code":"mobile","latitude":39.052614,"longitude":-77.123153,"total_money_raised":"$0","total_offices":1,"geoloc":{"type":"Point","coordinates":[-77.123153,39.052614]}},{"country_code":"CAN","name":"SmartHippo","founded_year":2005,"category_code":"ecommerce","latitude":45.506643,"longitude":-73.566634,"total_money_raised":"$0","total_offices":1,"geoloc":{"type":"Point","coordinates":[-73.566634,45.506643]}},{"country_code":"USA","name":"YourStreet","founded_year":2006,"category_code":"web","latitude":37.793742,"longitude":-122.421341,"total_money_raised":"$250k","total_offices":1,"geoloc":{"type":"Point","coordinates":[-122.421341,37.793742]}},{"country_code":"CAN","name":"IPartee","founded_year":2007,"category_code":"web","latitude":56.130366,"longitude":-106.346771,"total_money_raised":"$0","total_offices":1,"geoloc":{"type":"Point","coordinates":[-106.346771,56.130366]}},{"country_code":"CAN","name":"Zerofootprint","founded_year":2005,"category_code":"software","latitude":43.6501051,"longitude":-79.396805,"total_money_raised":"$0","total_offices":1,"geoloc":{"type":"Point","coordinates":[-79.396805,43.6501051]}},{"country_code":"USA","name":"FlowPlay","founded_year":2006,"category_code":"games_video","latitude":47.6015315,"longitude":-122.335943,"total_money_raised":"$3.97M","total_offices":1,"geoloc":{"type":"Point","coordinates":[-122.335943,47.6015315]}},{"country_code":"USA","name":"IMSafer","founded_year":2006,"category_code":"web","latitude":30.182107,"longitude":-95.536,"total_money_raised":"$0","total_offices":1,"geoloc":{"type":"Point","coordinates":[-95.536,30.182107]}},{"country_code":"USA","name":"Feedjit","founded_year":2007,"category_code":"web","latitude":47.585114,"longitude":-122.084356,"total_money_raised":"$450k","total_offices":1,"geoloc":{"type":"Point","coordinates":[-122.084356,47.585114]}},{"country_code":"USA","name":"Viewpoints","founded_year":2006,"category_code":"web","latitude":41.890376,"longitude":-87.63406,"total_money_raised":"$5M","total_offices":1,"geoloc":{"type":"Point","coordinates":[-87.63406,41.890376]}},{"country_code":"USA","name":"RatePoint","founded_year":2006,"category_code":"software","latitude":42.296111,"longitude":-71.238524,"total_money_raised":"$24.5M","total_offices":1,"geoloc":{"type":"Point","coordinates":[-71.238524,42.296111]}},{"country_code":"USA","name":"Balihoo","founded_year":2004,"category_code":"advertising","latitude":43.61295,"longitude":-116.205637,"total_money_raised":"$24.5M","total_offices":1,"geoloc":{"type":"Point","coordinates":[-116.205637,43.61295]}},{"country_code":"USA","name":"Iggli","founded_year":2007,"category_code":"web","latitude":40.010492,"longitude":-105.276843,"total_money_raised":"$0","total_offices":1,"geoloc":{"type":"Point","coordinates":[-105.276843,40.010492]}},{"country_code":"USA","name":"Smartsheet","founded_year":2005,"category_code":"enterprise","latitude":47.617842,"longitude":-122.20052,"total_money_raised":"$32.4M","total_offices":1,"geoloc":{"type":"Point","coordinates":[-122.20052,47.617842]}},{"country_code":"USA","name":"Tumri","founded_year":2004,"category_code":"advertising","latitude":37.09024,"longitude":-95.712891,"total_money_raised":"$31M","total_offices":1,"geoloc":{"type":"Point","coordinates":[-95.712891,37.09024]}},{"country_code":"USA","name":"OneRiot","founded_year":2006,"category_code":"advertising","latitude":40.01621,"longitude":-105.28131,"total_money_raised":"$27.3M","total_offices":1,"geoloc":{"type":"Point","coordinates":[-105.28131,40.01621]}},{"country_code":"FRA","name":"Trivop","founded_year":2007,"category_code":"web","latitude":48.8558532,"longitude":2.3365754,"total_money_raised":"$0","total_offices":1,"geoloc":{"type":"Point","coordinates":[2.3365754,48.8558532]}},{"country_code":"USA","name":"MuseStorm","founded_year":2005,"category_code":"web","latitude":37.368594,"longitude":-122.034021,"total_money_raised":"$1.5M","total_offices":1,"geoloc":{"type":"Point","coordinates":[-122.034021,37.368594]}},{"country_code":"USA","name":"UpDown","founded_year":2007,"category_code":"web","latitude":42.375392,"longitude":-71.118487,"total_money_raised":"$1.75M","total_offices":1,"geoloc":{"type":"Point","coordinates":[-71.118487,42.375392]}},{"country_code":"USA","name":"ChessPark","founded_year":2007,"category_code":"games_video","latitude":43.67084,"longitude":-83.913153,"total_money_raised":"$1M","total_offices":1,"geoloc":{"type":"Point","coordinates":[-83.913153,43.67084]}},{"country_code":"GBR","name":"Webjam","founded_year":2006,"category_code":"enterprise","latitude":51.519819,"longitude":-0.136174,"total_money_raised":"$2M","total_offices":1,"geoloc":{"type":"Point","coordinates":[-0.136174,51.519819]}},{"country_code":"SGP","name":"mig33","founded_year":2005,"category_code":"games_video","latitude":37.580304,"longitude":-122.343679,"total_money_raised":"$32.4M","total_offices":1,"geoloc":{"type":"Point","coordinates":[-122.343679,37.580304]}},{"country_code":"USA","name":"Swamble","founded_year":2007,"category_code":"web","latitude":36.076705,"longitude":-115.089514,"total_money_raised":"$0","total_offices":1,"geoloc":{"type":"Point","coordinates":[-115.089514,36.076705]}},{"country_code":"USA","name":"GamerDNA","founded_year":2006,"category_code":"web","latitude":42.375392,"longitude":-71.118487,"total_money_raised":"$3M","total_offices":1,"geoloc":{"type":"Point","coordinates":[-71.118487,42.375392]}},{"country_code":"USA","name":"Data360","founded_year":2006,"category_code":"web","latitude":37.799549,"longitude":-122.306571,"total_money_raised":"$0","total_offices":1,"geoloc":{"type":"Point","coordinates":[-122.306571,37.799549]}},{"country_code":"USA","name":"SpeedDate","founded_year":2007,"category_code":"web","latitude":37.557637,"longitude":-122.285714,"total_money_raised":"$11.6M","total_offices":1,"geoloc":{"type":"Point","coordinates":[-122.285714,37.557637]}},{"country_code":"USA","name":"Houseglue","founded_year":2007,"category_code":"web","latitude":37.222604,"longitude":-121.983814,"total_money_raised":"$0","total_offices":1,"geoloc":{"type":"Point","coordinates":[-121.983814,37.222604]}},{"country_code":"USA","name":"Pakt","founded_year":2006,"category_code":"web","latitude":33.945553,"longitude":-118.441219,"total_money_raised":"$0","total_offices":1,"geoloc":{"type":"Point","coordinates":[-118.441219,33.945553]}},{"country_code":"USA","name":"Realius","founded_year":2006,"category_code":"games_video","latitude":37.887864,"longitude":-122.26999,"total_money_raised":"$500k","total_offices":1,"geoloc":{"type":"Point","coordinates":[-122.26999,37.887864]}},{"country_code":"USA","name":"Metaplace","founded_year":2006,"category_code":"games_video","latitude":33.020832,"longitude":-117.077311,"total_money_raised":"$9.4M","total_offices":1,"geoloc":{"type":"Point","coordinates":[-117.077311,33.020832]}},{"country_code":"USA","name":"mEgo","founded_year":2005,"category_code":"web","latitude":34.064491,"longitude":-118.42749,"total_money_raised":"$7.35M","total_offices":1,"geoloc":{"type":"Point","coordinates":[-118.42749,34.064491]}},{"country_code":"USA","name":"BroadClip","founded_year":2006,"category_code":"software","latitude":37.661237,"longitude":-121.803572,"total_money_raised":"$3.11M","total_offices":1,"geoloc":{"type":"Point","coordinates":[-121.803572,37.661237]}},{"country_code":"USA","name":"Spoke","founded_year":2002,"category_code":"software","latitude":37.559287,"longitude":-122.302262,"total_money_raised":"$25.1M","total_offices":1,"geoloc":{"type":"Point","coordinates":[-122.302262,37.559287]}},{"country_code":"USA","name":"Xobni","founded_year":2006,"category_code":"software","latitude":37.789634,"longitude":-122.404052,"total_money_raised":"$41.8M","total_offices":1,"geoloc":{"type":"Point","coordinates":[-122.404052,37.789634]}},{"country_code":"USA","name":"Fixya","founded_year":2013,"category_code":"web","latitude":37.566879,"longitude":-122.323895,"total_money_raised":"$8M","total_offices":1,"geoloc":{"type":"Point","coordinates":[-122.323895,37.566879]}},{"country_code":"CZE","name":"Wirenode","founded_year":2005,"category_code":"mobile","latitude":50.055049,"longitude":14.489674,"total_money_raised":"$0","total_offices":1,"geoloc":{"type":"Point","coordinates":[14.489674,50.055049]}},{"country_code":"USA","name":"Syntraxis","founded_year":2006,"category_code":"web","latitude":32.860831,"longitude":-96.9403,"total_money_raised":"$0","total_offices":1,"geoloc":{"type":"Point","coordinates":[-96.9403,32.860831]}},{"country_code":"USA","name":"BrightQube","founded_year":2006,"category_code":"ecommerce","latitude":33.09568,"longitude":-117.244034,"total_money_raised":"$850k","total_offices":1,"geoloc":{"type":"Point","coordinates":[-117.244034,33.09568]}},{"country_code":"USA","name":"Tripwiser","founded_year":2006,"category_code":"web","latitude":37.384239,"longitude":-122.012475,"total_money_raised":"$0","total_offices":1,"geoloc":{"type":"Point","coordinates":[-122.012475,37.384239]}},{"country_code":"USA","name":"BuzzDash","founded_year":2006,"category_code":"web","latitude":33.977854,"longitude":-118.445271,"total_money_raised":"$1.2M","total_offices":1,"geoloc":{"type":"Point","coordinates":[-118.445271,33.977854]}},{"country_code":"USA","name":"Styky","founded_year":2003,"category_code":"mobile","latitude":39.956259,"longitude":-75.194657,"total_money_raised":"$100k","total_offices":1,"geoloc":{"type":"Point","coordinates":[-75.194657,39.956259]}},{"country_code":"USA","name":"GroupSwim","founded_year":2005,"category_code":"software","latitude":37.779558,"longitude":-122.393041,"total_money_raised":"$0","total_offices":1,"geoloc":{"type":"Point","coordinates":[-122.393041,37.779558]}},{"country_code":"USA","name":"Notemarks","founded_year":2003,"category_code":"web","latitude":39.281734,"longitude":-76.581864,"total_money_raised":"$0","total_offices":1,"geoloc":{"type":"Point","coordinates":[-76.581864,39.281734]}},{"country_code":"USA","name":"Diigo","founded_year":2006,"category_code":"web","latitude":39.530368,"longitude":-119.81439,"total_money_raised":"$0","total_offices":1,"geoloc":{"type":"Point","coordinates":[-119.81439,39.530368]}},{"country_code":"GBR","name":"Jiglu","founded_year":2003,"category_code":"software","latitude":51.54236,"longitude":-0.149522,"total_money_raised":"$800k","total_offices":1,"geoloc":{"type":"Point","coordinates":[-0.149522,51.54236]}},{"country_code":"NZL","name":"Type-Any-Circle-Of-Six","founded_year":2006,"category_code":"web","latitude":-37.797384,"longitude":175.2604,"total_money_raised":"$0","total_offices":1,"geoloc":{"type":"Point","coordinates":[175.2604,-37.797384]}},{"country_code":"USA","name":"EkkoTV","founded_year":2006,"category_code":"games_video","latitude":37.369195,"longitude":-122.036849,"total_money_raised":"$0","total_offices":1,"geoloc":{"type":"Point","coordinates":[-122.036849,37.369195]}},{"country_code":"ISR","name":"SuTree","founded_year":2006,"category_code":"games_video","latitude":32.0554,"longitude":34.7595,"total_money_raised":"$0","total_offices":1,"geoloc":{"type":"Point","coordinates":[34.7595,32.0554]}},{"country_code":"USA","name":"itsmylife","founded_year":2003,"category_code":"web","latitude":28.074742,"longitude":-80.632606,"total_money_raised":"$0","total_offices":1,"geoloc":{"type":"Point","coordinates":[-80.632606,28.074742]}},{"country_code":"USA","name":"Stixy","founded_year":2006,"category_code":"web","latitude":37.904468,"longitude":-122.542491,"total_money_raised":"$0","total_offices":1,"geoloc":{"type":"Point","coordinates":[-122.542491,37.904468]}},{"country_code":"USA","name":"Worklight","founded_year":2006,"category_code":"mobile","latitude":40.756799,"longitude":-73.976348,"total_money_raised":"$17.6M","total_offices":1,"geoloc":{"type":"Point","coordinates":[-73.976348,40.756799]}},{"country_code":"USA","name":"Dopetracks","founded_year":2007,"category_code":"web","latitude":34.210785,"longitude":-118.474261,"total_money_raised":"$0","total_offices":1,"geoloc":{"type":"Point","coordinates":[-118.474261,34.210785]}},{"country_code":"USA","name":"SueEasy","founded_year":2007,"category_code":"web","latitude":37.401355,"longitude":-122.104099,"total_money_raised":"$135k","total_offices":1,"geoloc":{"type":"Point","coordinates":[-122.104099,37.401355]}},{"country_code":"USA","name":"MatchMine","founded_year":2007,"category_code":"web","latitude":42.304545,"longitude":-71.220187,"total_money_raised":"$10M","total_offices":1,"geoloc":{"type":"Point","coordinates":[-71.220187,42.304545]}},{"country_code":"USA","name":"3Jam","founded_year":2005,"category_code":"mobile","latitude":37.765125,"longitude":-122.4044034,"total_money_raised":"$4M","total_offices":1,"geoloc":{"type":"Point","coordinates":[-122.4044034,37.765125]}},{"country_code":"USA","name":"Vestopia","founded_year":2007,"category_code":"web","latitude":37.792262,"longitude":-122.403486,"total_money_raised":"$0","total_offices":1,"geoloc":{"type":"Point","coordinates":[-122.403486,37.792262]}},{"country_code":"CAN","name":"Mobivox","founded_year":2007,"category_code":"mobile","latitude":45.500277,"longitude":-73.560084,"total_money_raised":"$11M","total_offices":1,"geoloc":{"type":"Point","coordinates":[-73.560084,45.500277]}},{"country_code":"NZL","name":"PlanHQ","founded_year":2007,"category_code":"software","latitude":-41.28648,"longitude":174.776217,"total_money_raised":"$250k","total_offices":1,"geoloc":{"type":"Point","coordinates":[174.776217,-41.28648]}},{"country_code":"USA","name":"DocuSign","founded_year":2003,"category_code":"software","latitude":47.603015,"longitude":-122.335668,"total_money_raised":"$116M","total_offices":1,"geoloc":{"type":"Point","coordinates":[-122.335668,47.603015]}},{"country_code":"USA","name":"Zimbra","founded_year":2003,"category_code":"enterprise","latitude":37.557637,"longitude":-122.285714,"total_money_raised":"$14.5M","total_offices":1,"geoloc":{"type":"Point","coordinates":[-122.285714,37.557637]}},{"country_code":"USA","name":"FriendFeed","founded_year":2007,"category_code":"web","latitude":37.39248,"longitude":-122.072612,"total_money_raised":"$5M","total_offices":1,"geoloc":{"type":"Point","coordinates":[-122.072612,37.39248]}},{"country_code":"USA","name":"Wikinvest","founded_year":2006,"category_code":"web","latitude":37.775196,"longitude":-122.419204,"total_money_raised":"$2.5M","total_offices":1,"geoloc":{"type":"Point","coordinates":[-122.419204,37.775196]}},{"country_code":"USA","name":"earthmine","founded_year":2006,"category_code":"enterprise","latitude":37.862209,"longitude":-122.298168,"total_money_raised":"$0","total_offices":1,"geoloc":{"type":"Point","coordinates":[-122.298168,37.862209]}},{"country_code":"USA","name":"Gazelle","founded_year":2006,"category_code":"ecommerce","latitude":42.354022,"longitude":-71.140762,"total_money_raised":"$46.4M","total_offices":1,"geoloc":{"type":"Point","coordinates":[-71.140762,42.354022]}},{"country_code":"USA","name":"Mixaloo","founded_year":2007,"category_code":"games_video","latitude":41.705555,"longitude":-73.938638,"total_money_raised":"$0","total_offices":1,"geoloc":{"type":"Point","coordinates":[-73.938638,41.705555]}},{"country_code":"USA","name":"Zipidee","founded_year":2007,"category_code":"ecommerce","latitude":37.09024,"longitude":-95.712891,"total_money_raised":"$0","total_offices":1,"geoloc":{"type":"Point","coordinates":[-95.712891,37.09024]}},{"country_code":"USA","name":"LocoGopher","founded_year":2007,"category_code":"web","latitude":45.3085,"longitude":-122.77941,"total_money_raised":"$0","total_offices":1,"geoloc":{"type":"Point","coordinates":[-122.77941,45.3085]}},{"country_code":"ESP","name":"Fon","founded_year":2006,"category_code":"mobile","latitude":40.530724,"longitude":-3.632687,"total_money_raised":"\u20ac44M","total_offices":1,"geoloc":{"type":"Point","coordinates":[-3.632687,40.530724]}},{"country_code":"USA","name":"RecipeMatcher","founded_year":2007,"category_code":"web","latitude":32.856744,"longitude":-117.20717,"total_money_raised":"$0","total_offices":1,"geoloc":{"type":"Point","coordinates":[-117.20717,32.856744]}},{"country_code":"DEU","name":"alluc","founded_year":2009,"category_code":"games_video","latitude":53.707739,"longitude":10.023246,"total_money_raised":"$0","total_offices":1,"geoloc":{"type":"Point","coordinates":[10.023246,53.707739]}},{"country_code":"USA","name":"Whiskey Media","founded_year":2007,"category_code":"web","latitude":37.856331,"longitude":-122.495222,"total_money_raised":"$4M","total_offices":1,"geoloc":{"type":"Point","coordinates":[-122.495222,37.856331]}},{"country_code":"USA","name":"Confabb","founded_year":2006,"category_code":"web","latitude":37.408826,"longitude":-122.29522,"total_money_raised":"$200k","total_offices":1,"geoloc":{"type":"Point","coordinates":[-122.29522,37.408826]}},{"country_code":"USA","name":"RayV","founded_year":2005,"category_code":"games_video","latitude":40.781159,"longitude":-73.978332,"total_money_raised":"$16M","total_offices":1,"geoloc":{"type":"Point","coordinates":[-73.978332,40.781159]}},{"country_code":"USA","name":"Uptake","founded_year":2008,"category_code":"web","latitude":37.443058,"longitude":-122.161674,"total_money_raised":"$16.8M","total_offices":1,"geoloc":{"type":"Point","coordinates":[-122.161674,37.443058]}},{"country_code":"USA","name":"23andMe","founded_year":2006,"category_code":"biotech","latitude":37.09024,"longitude":-95.712891,"total_money_raised":"$161M","total_offices":1,"geoloc":{"type":"Point","coordinates":[-95.712891,37.09024]}},{"country_code":"NLD","name":"Woophy","founded_year":2005,"category_code":"web","latitude":51.9562996,"longitude":4.5188631,"total_money_raised":"$0","total_offices":1,"geoloc":{"type":"Point","coordinates":[4.5188631,51.9562996]}},{"country_code":"USA","name":"Polyvore","founded_year":2007,"category_code":"web","latitude":37.386175,"longitude":-122.083487,"total_money_raised":"$22.1M","total_offices":1,"geoloc":{"type":"Point","coordinates":[-122.083487,37.386175]}},{"country_code":"USA","name":"YuMe","founded_year":2004,"category_code":"advertising","latitude":37.476479,"longitude":-122.221717,"total_money_raised":"$72.9M","total_offices":1,"geoloc":{"type":"Point","coordinates":[-122.221717,37.476479]}},{"country_code":"USA","name":"Treemo Labs","founded_year":2005,"category_code":"mobile","latitude":47.620716,"longitude":-122.347533,"total_money_raised":"$2.55M","total_offices":1,"geoloc":{"type":"Point","coordinates":[-122.347533,47.620716]}},{"country_code":"USA","name":"AdReady","founded_year":2006,"category_code":"advertising","latitude":47.649027,"longitude":-122.346299,"total_money_raised":"$17.8M","total_offices":1,"geoloc":{"type":"Point","coordinates":[-122.346299,47.649027]}},{"country_code":"USA","name":"Blurb","founded_year":2005,"category_code":"ecommerce","latitude":37.792968,"longitude":-122.40414,"total_money_raised":"$21.6M","total_offices":1,"geoloc":{"type":"Point","coordinates":[-122.40414,37.792968]}},{"country_code":"USA","name":"Automattic","founded_year":2005,"category_code":"web","latitude":37.744274,"longitude":-122.421344,"total_money_raised":"$30.6M","total_offices":1,"geoloc":{"type":"Point","coordinates":[-122.421344,37.744274]}},{"country_code":"USA","name":"Tumblr","founded_year":2007,"category_code":"web","latitude":40.743808,"longitude":-73.983626,"total_money_raised":"$125M","total_offices":1,"geoloc":{"type":"Point","coordinates":[-73.983626,40.743808]}},{"country_code":"USA","name":"Picnik","founded_year":2006,"category_code":"web","latitude":47.610571,"longitude":-122.341769,"total_money_raised":"$0","total_offices":1,"geoloc":{"type":"Point","coordinates":[-122.341769,47.610571]}},{"country_code":"USA","name":"Veodia","founded_year":2006,"category_code":"games_video","latitude":37.553743,"longitude":-122.300246,"total_money_raised":"$8.3M","total_offices":1,"geoloc":{"type":"Point","coordinates":[-122.300246,37.553743]}},{"country_code":"GBR","name":"blinkbox","founded_year":2006,"category_code":"games_video","latitude":51.520779,"longitude":-0.10759,"total_money_raised":"$0","total_offices":1,"geoloc":{"type":"Point","coordinates":[-0.10759,51.520779]}},{"country_code":"USA","name":"Shopatron","founded_year":2001,"category_code":"enterprise","latitude":37.09024,"longitude":-95.712891,"total_money_raised":"$10M","total_offices":1,"geoloc":{"type":"Point","coordinates":[-95.712891,37.09024]}},{"country_code":"USA","name":"EchoSign","founded_year":2005,"category_code":"web","latitude":37.445326,"longitude":-122.160671,"total_money_raised":"$8.5M","total_offices":1,"geoloc":{"type":"Point","coordinates":[-122.160671,37.445326]}},{"country_code":"USA","name":"TasteBook","founded_year":2007,"category_code":"web","latitude":37.872222,"longitude":-122.268403,"total_money_raised":"$0","total_offices":1,"geoloc":{"type":"Point","coordinates":[-122.268403,37.872222]}},{"country_code":"USA","name":"Buzzwire","founded_year":2007,"category_code":"mobile","latitude":39.755092,"longitude":-104.988123,"total_money_raised":"$12M","total_offices":1,"geoloc":{"type":"Point","coordinates":[-104.988123,39.755092]}},{"country_code":"USA","name":"Simpy","founded_year":2004,"category_code":"web","latitude":40.6632194,"longitude":-73.9800645,"total_money_raised":"$0","total_offices":1,"geoloc":{"type":"Point","coordinates":[-73.9800645,40.6632194]}},{"country_code":"USA","name":"Crusher","founded_year":2006,"category_code":"web","latitude":37.772542,"longitude":-122.430127,"total_money_raised":"$0","total_offices":1,"geoloc":{"type":"Point","coordinates":[-122.430127,37.772542]}},{"country_code":"USA","name":"XLNTads","founded_year":2006,"category_code":"web","latitude":40.09665,"longitude":-75.298032,"total_money_raised":"$0","total_offices":1,"geoloc":{"type":"Point","coordinates":[-75.298032,40.09665]}},{"country_code":"USA","name":"JobDig","founded_year":2000,"category_code":"advertising","latitude":44.871371,"longitude":-93.407837,"total_money_raised":"$0","total_offices":1,"geoloc":{"type":"Point","coordinates":[-93.407837,44.871371]}},{"country_code":"USA","name":"Predictify","founded_year":2007,"category_code":"advertising","latitude":37.486571,"longitude":-122.229161,"total_money_raised":"$4.3M","total_offices":1,"geoloc":{"type":"Point","coordinates":[-122.229161,37.486571]}},{"country_code":"USA","name":"Rollbase","founded_year":2007,"category_code":"enterprise","latitude":37.2572451,"longitude":-122.0341004,"total_money_raised":"$300k","total_offices":1,"geoloc":{"type":"Point","coordinates":[-122.0341004,37.2572451]}},{"country_code":"CAN","name":"Ubertor","founded_year":2000,"category_code":"web","latitude":49.25403,"longitude":-123.115208,"total_money_raised":"$0","total_offices":1,"geoloc":{"type":"Point","coordinates":[-123.115208,49.25403]}},{"country_code":"USA","name":"TrialPay","founded_year":2006,"category_code":"advertising","latitude":37.388095,"longitude":-122.08276,"total_money_raised":"$55.8M","total_offices":1,"geoloc":{"type":"Point","coordinates":[-122.08276,37.388095]}},{"country_code":"FIN","name":"Floobs","founded_year":2007,"category_code":"web","latitude":60.1760995,"longitude":24.9279199,"total_money_raised":"$0","total_offices":1,"geoloc":{"type":"Point","coordinates":[24.9279199,60.1760995]}},{"country_code":"USA","name":"Firetide","founded_year":2003,"category_code":"mobile","latitude":37.285133,"longitude":-121.932962,"total_money_raised":"$39.8M","total_offices":1,"geoloc":{"type":"Point","coordinates":[-121.932962,37.285133]}},{"country_code":"USA","name":"eXelate","founded_year":2007,"category_code":"advertising","latitude":40.741266,"longitude":-73.990753,"total_money_raised":"$32M","total_offices":6,"geoloc":{"type":"Point","coordinates":[-73.990753,40.741266]}},{"country_code":"USA","name":"eXelate","founded_year":2007,"category_code":"advertising","latitude":37.787249,"longitude":-122.3990501,"total_money_raised":"$32M","total_offices":6,"geoloc":{"type":"Point","coordinates":[-122.3990501,37.787249]}},{"country_code":"USA","name":"eXelate","founded_year":2007,"category_code":"advertising","latitude":41.8831959,"longitude":-87.6517774,"total_money_raised":"$32M","total_offices":6,"geoloc":{"type":"Point","coordinates":[-87.6517774,41.8831959]}},{"country_code":"ISR","name":"eXelate","founded_year":2007,"category_code":"advertising","latitude":32.1618634,"longitude":34.9341664,"total_money_raised":"$32M","total_offices":6,"geoloc":{"type":"Point","coordinates":[34.9341664,32.1618634]}},{"country_code":"FRA","name":"eXelate","founded_year":2007,"category_code":"advertising","latitude":48.8743443,"longitude":2.3226888,"total_money_raised":"$32M","total_offices":6,"geoloc":{"type":"Point","coordinates":[2.3226888,48.8743443]}},{"country_code":"GBR","name":"eXelate","founded_year":2007,"category_code":"advertising","latitude":51.5150129,"longitude":-0.1326786,"total_money_raised":"$32M","total_offices":6,"geoloc":{"type":"Point","coordinates":[-0.1326786,51.5150129]}},{"country_code":"USA","name":"Eurekster","founded_year":2004,"category_code":"web","latitude":37.790992,"longitude":-122.40188,"total_money_raised":"$6.85M","total_offices":1,"geoloc":{"type":"Point","coordinates":[-122.40188,37.790992]}},{"country_code":"USA","name":"OnLive","founded_year":2002,"category_code":"games_video","latitude":37.09024,"longitude":-95.712891,"total_money_raised":"$56.5M","total_offices":1,"geoloc":{"type":"Point","coordinates":[-95.712891,37.09024]}},{"country_code":"USA","name":"Gydget","founded_year":2007,"category_code":"web","latitude":37.791733,"longitude":-122.398398,"total_money_raised":"$1M","total_offices":1,"geoloc":{"type":"Point","coordinates":[-122.398398,37.791733]}},{"country_code":"USA","name":"Baynote","founded_year":2004,"category_code":"software","latitude":37.332271,"longitude":-122.006539,"total_money_raised":"$27.8M","total_offices":1,"geoloc":{"type":"Point","coordinates":[-122.006539,37.332271]}},{"country_code":"USA","name":"Gigya","founded_year":2006,"category_code":"enterprise","latitude":37.43938,"longitude":-122.158804,"total_money_raised":"$69.8M","total_offices":1,"geoloc":{"type":"Point","coordinates":[-122.158804,37.43938]}},{"country_code":"USA","name":"Songbird","founded_year":2006,"category_code":"mobile","latitude":37.787126,"longitude":-122.39783,"total_money_raised":"$11M","total_offices":1,"geoloc":{"type":"Point","coordinates":[-122.39783,37.787126]}},{"country_code":"USA","name":"Jango","founded_year":2007,"category_code":"games_video","latitude":40.757929,"longitude":-73.985506,"total_money_raised":"$0","total_offices":1,"geoloc":{"type":"Point","coordinates":[-73.985506,40.757929]}},{"country_code":"USA","name":"Quigo","founded_year":2000,"category_code":"advertising","latitude":40.907974,"longitude":-73.84179,"total_money_raised":"$35M","total_offices":1,"geoloc":{"type":"Point","coordinates":[-73.84179,40.907974]}},{"country_code":"USA","name":"Disqus","founded_year":2007,"category_code":"web","latitude":37.786906,"longitude":-122.397672,"total_money_raised":"$10.5M","total_offices":1,"geoloc":{"type":"Point","coordinates":[-122.397672,37.786906]}},{"country_code":"USA","name":"SezWho","founded_year":2006,"category_code":"web","latitude":37.351894,"longitude":-122.085807,"total_money_raised":"$1M","total_offices":1,"geoloc":{"type":"Point","coordinates":[-122.085807,37.351894]}},{"country_code":"USA","name":"Qloud","founded_year":2007,"category_code":"games_video","latitude":39.016745,"longitude":-77.023821,"total_money_raised":"$600k","total_offices":1,"geoloc":{"type":"Point","coordinates":[-77.023821,39.016745]}},{"country_code":"USA","name":"FilmCrave","founded_year":2007,"category_code":"games_video","latitude":38.977092,"longitude":-94.370901,"total_money_raised":"$0","total_offices":1,"geoloc":{"type":"Point","coordinates":[-94.370901,38.977092]}},{"country_code":"USA","name":"Pelago","founded_year":2005,"category_code":"mobile","latitude":47.607065,"longitude":-122.335373,"total_money_raised":"$22.4M","total_offices":1,"geoloc":{"type":"Point","coordinates":[-122.335373,47.607065]}},{"country_code":"USA","name":"Upcoming","founded_year":2003,"category_code":"web","latitude":37.352309,"longitude":-121.968474,"total_money_raised":"$0","total_offices":1,"geoloc":{"type":"Point","coordinates":[-121.968474,37.352309]}},{"country_code":"USA","name":"DraftMix","founded_year":2007,"category_code":"games_video","latitude":37.279132,"longitude":-121.956295,"total_money_raised":"$0","total_offices":1,"geoloc":{"type":"Point","coordinates":[-121.956295,37.279132]}},{"country_code":"BEL","name":"Zilok","founded_year":2007,"category_code":"ecommerce","latitude":50.837051,"longitude":4.367612,"total_money_raised":"$0","total_offices":1,"geoloc":{"type":"Point","coordinates":[4.367612,50.837051]}},{"country_code":"DEU","name":"Plazes","founded_year":2006,"category_code":"web","latitude":52.523402,"longitude":13.398694,"total_money_raised":"\u20ac3.7M","total_offices":1,"geoloc":{"type":"Point","coordinates":[13.398694,52.523402]}},{"country_code":"USA","name":"StylePath","founded_year":2007,"category_code":"web","latitude":42.402378,"longitude":-71.288568,"total_money_raised":"$0","total_offices":1,"geoloc":{"type":"Point","coordinates":[-71.288568,42.402378]}},{"country_code":"USA","name":"Faves","founded_year":2004,"category_code":"web","latitude":47.603327,"longitude":-122.334983,"total_money_raised":"$1.5M","total_offices":1,"geoloc":{"type":"Point","coordinates":[-122.334983,47.603327]}},{"country_code":"USA","name":"Vringo","founded_year":2006,"category_code":"software","latitude":40.7550005,"longitude":-73.9717364,"total_money_raised":"$37M","total_offices":1,"geoloc":{"type":"Point","coordinates":[-73.9717364,40.7550005]}},{"country_code":"USA","name":"GotCast","founded_year":2007,"category_code":"games_video","latitude":34.064139,"longitude":-118.468672,"total_money_raised":"$50k","total_offices":1,"geoloc":{"type":"Point","coordinates":[-118.468672,34.064139]}},{"country_code":"USA","name":"BrainKeeper","founded_year":2005,"category_code":"web","latitude":38.84919,"longitude":-77.4582,"total_money_raised":"$0","total_offices":1,"geoloc":{"type":"Point","coordinates":[-77.4582,38.84919]}},{"country_code":"ISR","name":"Yedda","founded_year":2006,"category_code":"web","latitude":32.0554,"longitude":34.7595,"total_money_raised":"$2.5M","total_offices":1,"geoloc":{"type":"Point","coordinates":[34.7595,32.0554]}},{"country_code":"CAN","name":"Casero","founded_year":2002,"category_code":"web","latitude":43.650168,"longitude":-79.37621,"total_money_raised":"$13.3M","total_offices":1,"geoloc":{"type":"Point","coordinates":[-79.37621,43.650168]}},{"country_code":"USA","name":"Minekey","founded_year":2005,"category_code":"web","latitude":37.384239,"longitude":-122.012475,"total_money_raised":"$3.6M","total_offices":1,"geoloc":{"type":"Point","coordinates":[-122.012475,37.384239]}},{"country_code":"USA","name":"RepairPal","founded_year":2007,"category_code":"web","latitude":37.838225,"longitude":-122.296411,"total_money_raised":"$21.3M","total_offices":1,"geoloc":{"type":"Point","coordinates":[-122.296411,37.838225]}},{"country_code":"USA","name":"Chintano","founded_year":2005,"category_code":"advertising","latitude":47.649788,"longitude":-122.34988,"total_money_raised":"$0","total_offices":1,"geoloc":{"type":"Point","coordinates":[-122.34988,47.649788]}},{"country_code":"USA","name":"Xconomy","founded_year":2007,"category_code":"web","latitude":37.09024,"longitude":-95.712891,"total_money_raised":"$0","total_offices":1,"geoloc":{"type":"Point","coordinates":[-95.712891,37.09024]}},{"country_code":"USA","name":"Dipity","founded_year":2007,"category_code":"web","latitude":37.781262,"longitude":-122.394958,"total_money_raised":"$900k","total_offices":1,"geoloc":{"type":"Point","coordinates":[-122.394958,37.781262]}},{"country_code":"USA","name":"StreetFire","founded_year":2004,"category_code":"web","latitude":33.982431,"longitude":-118.426707,"total_money_raised":"$7.9M","total_offices":1,"geoloc":{"type":"Point","coordinates":[-118.426707,33.982431]}},{"country_code":"CAN","name":"Needium","founded_year":2010,"category_code":"enterprise","latitude":45.5049305,"longitude":-73.5681635,"total_money_raised":"$1M","total_offices":1,"geoloc":{"type":"Point","coordinates":[-73.5681635,45.5049305]}},{"country_code":"USA","name":"TrackVia","founded_year":2006,"category_code":"software","latitude":39.738499,"longitude":-105.158645,"total_money_raised":"$9.02M","total_offices":1,"geoloc":{"type":"Point","coordinates":[-105.158645,39.738499]}},{"country_code":"USA","name":"Loopt","founded_year":2005,"category_code":"mobile","latitude":37.384717,"longitude":-122.081625,"total_money_raised":"$32M","total_offices":1,"geoloc":{"type":"Point","coordinates":[-122.081625,37.384717]}},{"country_code":"USA","name":"Podaddies","founded_year":2006,"category_code":"advertising","latitude":37.7726402,"longitude":-122.4099154,"total_money_raised":"$1M","total_offices":1,"geoloc":{"type":"Point","coordinates":[-122.4099154,37.7726402]}},{"country_code":"USA","name":"MyBuys","founded_year":2006,"category_code":"advertising","latitude":37.530893,"longitude":-122.245087,"total_money_raised":"$40.8M","total_offices":2,"geoloc":{"type":"Point","coordinates":[-122.245087,37.530893]}},{"country_code":"USA","name":"MyBuys","founded_year":2006,"category_code":"advertising","latitude":42.277416,"longitude":-83.733276,"total_money_raised":"$40.8M","total_offices":2,"geoloc":{"type":"Point","coordinates":[-83.733276,42.277416]}},{"country_code":"USA","name":"Congoo","founded_year":2005,"category_code":"web","latitude":40.59865,"longitude":-74.67117,"total_money_raised":"$0","total_offices":1,"geoloc":{"type":"Point","coordinates":[-74.67117,40.59865]}},{"country_code":"USA","name":"Springbox","founded_year":2004,"category_code":"web","latitude":30.269452,"longitude":-97.742682,"total_money_raised":"$0","total_offices":2,"geoloc":{"type":"Point","coordinates":[-97.742682,30.269452]}},{"country_code":"USA","name":"Springbox","founded_year":2004,"category_code":"web","latitude":34.0065488,"longitude":-118.3923578,"total_money_raised":"$0","total_offices":2,"geoloc":{"type":"Point","coordinates":[-118.3923578,34.0065488]}},{"country_code":"USA","name":"Optimost","founded_year":2001,"category_code":"software","latitude":37.09024,"longitude":-95.712891,"total_money_raised":"$0","total_offices":1,"geoloc":{"type":"Point","coordinates":[-95.712891,37.09024]}},{"country_code":"USA","name":"Vobile","founded_year":2005,"category_code":"web","latitude":37.399208,"longitude":-121.97895,"total_money_raised":"$10M","total_offices":1,"geoloc":{"type":"Point","coordinates":[-121.97895,37.399208]}},{"country_code":"USA","name":"Vivox","founded_year":2005,"category_code":"advertising","latitude":37.09024,"longitude":-95.712891,"total_money_raised":"$22.6M","total_offices":1,"geoloc":{"type":"Point","coordinates":[-95.712891,37.09024]}},{"country_code":"USA","name":"Jackson Fish Market","founded_year":2006,"category_code":"software","latitude":47.6018824,"longitude":-122.3355636,"total_money_raised":"$0","total_offices":1,"geoloc":{"type":"Point","coordinates":[-122.3355636,47.6018824]}},{"country_code":"USA","name":"Billeo","founded_year":2006,"category_code":"ecommerce","latitude":37.385216,"longitude":-121.972128,"total_money_raised":"$15.3M","total_offices":2,"geoloc":{"type":"Point","coordinates":[-121.972128,37.385216]}},{"country_code":"USA","name":"Billeo","founded_year":2006,"category_code":"ecommerce","latitude":37.4069445,"longitude":-121.9797628,"total_money_raised":"$15.3M","total_offices":2,"geoloc":{"type":"Point","coordinates":[-121.9797628,37.4069445]}},{"country_code":"USA","name":"RealSelf","founded_year":2006,"category_code":"web","latitude":47.620716,"longitude":-122.347533,"total_money_raised":"$1.95M","total_offices":1,"geoloc":{"type":"Point","coordinates":[-122.347533,47.620716]}},{"country_code":"NLD","name":"GeoSentric","founded_year":2007,"category_code":"mobile","latitude":37.09024,"longitude":-95.712891,"total_money_raised":"$24.1M","total_offices":1,"geoloc":{"type":"Point","coordinates":[-95.712891,37.09024]}},{"country_code":"USA","name":"littleye","founded_year":2007,"category_code":"software","latitude":33.971132,"longitude":-118.455798,"total_money_raised":"$0","total_offices":1,"geoloc":{"type":"Point","coordinates":[-118.455798,33.971132]}},