[{"country_code":"USA","name":"Mokitown","founded_year":2011,"category_code":"web","latitude":37.09024,"longitude":-95.712891,"total_money_raised":"$0","total_offices":1,"geoloc":{"type":"Point","coordinates":[-95.712891,37.09024]}},{"country_code":"USA","name":"PeekYou","founded_year":2012,"category_code":"search","latitude":40.757929,"longitude":-73.985506,"total_money_raised":"$1.83M","total_offices":1,"geoloc":{"type":"Point","coordinates":[-73.985506,40.757929]}},{"country_code":"USA","name":"GENWI","founded_year":2010,"category_code":"mobile","latitude":33.8171,"longitude":-111.9035,"total_money_raised":"$7.1M","total_offices":1,"geoloc":{"type":"Point","coordinates":[-111.9035,33.8171]}},{"country_code":"USA","name":"Fixya","founded_year":2013,"category_code":"web","latitude":37.566879,"longitude":-122.323895,"total_money_raised":"$8M","total_offices":1,"geoloc":{"type":"Point","coordinates":[-122.323895,37.566879]}},{"country_code":"DEU","name":"alluc","founded_year":2009,"category_code":"games_video","latitude":53.707739,"longitude":10.023246,"total_money_raised":"$0","total_offices":1,"geoloc":{"type":"Point","coordinates":[10.023246,53.707739]}},{"country_code":"USA","name":"RazorGator","founded_year":2011,"category_code":"ecommerce","latitude":34.047312,"longitude":-118.445243,"total_money_raised":"$58.8M","total_offices":1,"geoloc":{"type":"Point","coordinates":[-118.445243,34.047312]}},{"country_code":"USA","name":"Social Gaming Network","founded_year":2011,"category_code":"games_video","latitude":37.446823,"longitude":-122.161523,"total_money_raised":"$17.1M","total_offices":2,"geoloc":{"type":"Point","coordinates":[-122.161523,37.446823]}},{"country_code":"USA","name":"Social Gaming Network","founded_year":2011,"category_code":"games_video","latitude":34.0698494,"longitude":-118.4054182,"total_money_raised":"$17.1M","total_offices":2,"geoloc":{"type":"Point","coordinates":[-118.4054182,34.0698494]}},{"country_code":"USA","name":"YouNoodle","founded_year":2010,"category_code":"analytics","latitude":37.7766587,"longitude":-122.395875,"total_money_raised":"$0","total_offices":1,"geoloc":{"type":"Point","coordinates":[-122.395875,37.7766587]}},{"country_code":"USA","name":"Crootpad","founded_year":2009,"category_code":"games_video","latitude":42.091078,"longitude":-88.288749,"total_money_raised":"$0","total_offices":1,"geoloc":{"type":"Point","coordinates":[-88.288749,42.091078]}},{"country_code":"USA","name":"Skydeck","founded_year":2012,"category_code":"mobile","latitude":37.5645375,"longitude":-122.3254705,"total_money_raised":"$4M","total_offices":1,"geoloc":{"type":"Point","coordinates":[-122.3254705,37.5645375]}},{"country_code":"USA","name":"Ninite","founded_year":2009,"category_code":"enterprise","latitude":37.789349,"longitude":-122.412893,"total_money_raised":"$0","total_offices":1,"geoloc":{"type":"Point","coordinates":[-122.412893,37.789349]}},{"country_code":"USA","name":"Handipoints","founded_year":2009,"category_code":"games_video","latitude":37.772323,"longitude":-122.214897,"total_money_raised":"$800k","total_offices":1,"geoloc":{"type":"Point","coordinates":[-122.214897,37.772323]}},{"country_code":"USA","name":"Magento","founded_year":2010,"category_code":"ecommerce","latitude":34.052187,"longitude":-118.243425,"total_money_raised":"$22.5M","total_offices":1,"geoloc":{"type":"Point","coordinates":[-118.243425,34.052187]}},{"country_code":"USA","name":"Macroaxis","founded_year":2009,"category_code":"software","latitude":37.7896292,"longitude":-122.3998782,"total_money_raised":"$0","total_offices":1,"geoloc":{"type":"Point","coordinates":[-122.3998782,37.7896292]}},{"country_code":"AUS","name":"Jumbuck Entertainment","founded_year":2012,"category_code":"mobile","latitude":-37.817748,"longitude":144.962991,"total_money_raised":"$0","total_offices":1,"geoloc":{"type":"Point","coordinates":[144.962991,-37.817748]}},{"country_code":"GBR","name":"Pixsta","founded_year":2010,"category_code":"web","latitude":51.51819,"longitude":-0.208979,"total_money_raised":"\u00a33M","total_offices":1,"geoloc":{"type":"Point","coordinates":[-0.208979,51.51819]}},{"country_code":"USA","name":"FirstString","founded_year":2011,"category_code":"search","latitude":34.052187,"longitude":-118.243425,"total_money_raised":"$200k","total_offices":1,"geoloc":{"type":"Point","coordinates":[-118.243425,34.052187]}},{"country_code":"USA","name":"Fuzz","founded_year":2011,"category_code":"games_video","latitude":37.760524,"longitude":-122.387799,"total_money_raised":"$0","total_offices":1,"geoloc":{"type":"Point","coordinates":[-122.387799,37.760524]}},{"country_code":"USA","name":"BrandYourself","founded_year":2009,"category_code":"web","latitude":42.275263,"longitude":-71.24762,"total_money_raised":"$1.5M","total_offices":1,"geoloc":{"type":"Point","coordinates":[-71.24762,42.275263]}},{"country_code":"USA","name":"CollegeConvo","founded_year":2010,"category_code":"web","latitude":40.650291,"longitude":-74.294395,"total_money_raised":"$0","total_offices":1,"geoloc":{"type":"Point","coordinates":[-74.294395,40.650291]}},{"country_code":"USA","name":"Carfeine","founded_year":2012,"category_code":"software","latitude":38.989124,"longitude":-77.026676,"total_money_raised":"$0","total_offices":1,"geoloc":{"type":"Point","coordinates":[-77.026676,38.989124]}},{"country_code":"USA","name":"Ziippi","founded_year":2011,"category_code":"web","latitude":37.4440981,"longitude":-122.1612868,"total_money_raised":"$0","total_offices":1,"geoloc":{"type":"Point","coordinates":[-122.1612868,37.4440981]}},{"country_code":"USA","name":"Vusion","founded_year":2009,"category_code":"games_video","latitude":37.412069,"longitude":-121.900366,"total_money_raised":"$0","total_offices":1,"geoloc":{"type":"Point","coordinates":[-121.900366,37.412069]}},{"country_code":"USA","name":"Titan Gaming","founded_year":2010,"category_code":"games_video","latitude":53.544711,"longitude":-113.515769,"total_money_raised":"$1M","total_offices":1,"geoloc":{"type":"Point","coordinates":[-113.515769,53.544711]}},{"country_code":"USA","name":"BitRock","founded_year":2009,"category_code":"software","latitude":37.78424,"longitude":-122.274771,"total_money_raised":"$0","total_offices":1,"geoloc":{"type":"Point","coordinates":[-122.274771,37.78424]}},{"country_code":"USA","name":"JumpForward","founded_year":2010,"category_code":"software","latitude":41.857204,"longitude":-87.623923,"total_money_raised":"$0","total_offices":1,"geoloc":{"type":"Point","coordinates":[-87.623923,41.857204]}},{"country_code":"USA","name":"Gimigo","founded_year":2013,"category_code":"analytics","latitude":44.859587,"longitude":-93.226503,"total_money_raised":"$0","total_offices":1,"geoloc":{"type":"Point","coordinates":[-93.226503,44.859587]}},{"country_code":"USA","name":"OTOY","founded_year":2010,"category_code":"software","latitude":34.15761,"longitude":-118.424058,"total_money_raised":"$0","total_offices":1,"geoloc":{"type":"Point","coordinates":[-118.424058,34.15761]}},{"country_code":"USA","name":"SEOGroup","founded_year":2013,"category_code":"advertising","latitude":41.886264,"longitude":-87.624701,"total_money_raised":"$0","total_offices":1,"geoloc":{"type":"Point","coordinates":[-87.624701,41.886264]}},{"country_code":"GBR","name":"CompareAway","founded_year":2009,"category_code":"web","latitude":54.703145,"longitude":-1.574948,"total_money_raised":"\u00a3500k","total_offices":1,"geoloc":{"type":"Point","coordinates":[-1.574948,54.703145]}},{"country_code":"USA","name":"vufind","founded_year":2010,"category_code":"mobile","latitude":37.424614,"longitude":-122.145153,"total_money_raised":"$930k","total_offices":2,"geoloc":{"type":"Point","coordinates":[-122.145153,37.424614]}},{"country_code":"USA","name":"Non-Member Films","founded_year":2012,"category_code":"photo_video","latitude":33.989029,"longitude":-118.462421,"total_money_raised":"$0","total_offices":4,"geoloc":{"type":"Point","coordinates":[-118.462421,33.989029]}},{"country_code":"USA","name":"Non-Member Films","founded_year":2012,"category_code":"photo_video","latitude":42.330165,"longitude":-83.045913,"total_money_raised":"$0","total_offices":4,"geoloc":{"type":"Point","coordinates":[-83.045913,42.330165]}},{"country_code":"SWE","name":"Burt","founded_year":2009,"category_code":"advertising","latitude":59.337864,"longitude":18.036587,"total_money_raised":"$3.5M","total_offices":2,"geoloc":{"type":"Point","coordinates":[18.036587,59.337864]}},{"country_code":"USA","name":"Inuvo","founded_year":2009,"category_code":"advertising","latitude":27.913011,"longitude":-82.702449,"total_money_raised":"$4.2M","total_offices":2,"geoloc":{"type":"Point","coordinates":[-82.702449,27.913011]}},{"country_code":"USA","name":"Kidos","founded_year":2011,"category_code":"games_video","latitude":40.768058,"longitude":-73.956599,"total_money_raised":"$200k","total_offices":4,"geoloc":{"type":"Point","coordinates":[-73.956599,40.768058]}},{"country_code":"USA","name":"Kidos","founded_year":2011,"category_code":"games_video","latitude":40.714056,"longitude":-73.957854,"total_money_raised":"$200k","total_offices":4,"geoloc":{"type":"Point","coordinates":[-73.957854,40.714056]}},{"country_code":"USA","name":"vufind","founded_year":2010,"category_code":"mobile","latitude":37.424614,"longitude":-122.145153,"total_money_raised":"$930k","total_offices":2,"geoloc":{"type":"Point","coordinates":[-122.145153,37.424614]}},{"country_code":"USA","name":"Non-Member Films","founded_year":2012,"category_code":"photo_video","latitude":33.989029,"longitude":-118.462421,"total_money_raised":"$0","total_offices":4,"geoloc":{"type":"Point","coordinates":[-118.462421,33.989029]}},{"country_code":"USA","name":"Non-Member Films","founded_year":2012,"category_code":"photo_video","latitude":42.330165,"longitude":-83.045913,"total_money_raised":"$0","total_offices":4,"geoloc":{"type":"Point","coordinates":[-83.045913,42.330165]}},{"country_code":"SWE","name":"Burt","founded_year":2009,"category_code":"advertising","latitude":59.337864,"longitude":18.036587,"total_money_raised":"$3.5M","total_offices":2,"geoloc":{"type":"Point","coordinates":[18.036587,59.337864]}},{"country_code":"USA","name":"Inuvo","founded_year":2009,"category_code":"advertising","latitude":27.913011,"longitude":-82.702449,"total_money_raised":"$4.2M","total_offices":2,"geoloc":{"type":"Point","coordinates":[-82.702449,27.913011]}},{"country_code":"USA","name":"Kidos","founded_year":2011,"category_code":"games_video","latitude":40.768058,"longitude":-73.956599,"total_money_raised":"$200k","total_offices":4,"geoloc":{"type":"Point","coordinates":[-73.956599,40.768058]}},{"country_code":"USA","name":"Kidos","founded_year":2011,"category_code":"games_video","latitude":40.714056,"longitude":-73.957854,"total_money_raised":"$200k","total_offices":4,"geoloc":{"type":"Point","coordinates":[-73.957854,40.714056]}},{"country_code":"USA","name":"Magoosh","founded_year":2009,"category_code":"web","latitude":37.871087,"longitude":-122.270913,"total_money_raised":"$0","total_offices":1,"geoloc":{"type":"Point","coordinates":[-122.270913,37.871087]}},{"country_code":"CAN","name":"Equedia","founded_year":2010,"category_code":"games_video","latitude":49.2871668,"longitude":-123.1169693,"total_money_raised":"$0","total_offices":1,"geoloc":{"type":"Point","coordinates":[-123.1169693,49.2871668]}},{"country_code":"NLD","name":"Navara","founded_year":2012,"category_code":"software","latitude":52.126616,"longitude":5.038078,"total_money_raised":"$0","total_offices":1,"geoloc":{"type":"Point","coordinates":[5.038078,52.126616]}},{"country_code":"USA","name":"Webmoblink","founded_year":2010,"category_code":"advertising","latitude":25.655899,"longitude":-80.424167,"total_money_raised":"$0","total_offices":1,"geoloc":{"type":"Point","coordinates":[-80.424167,25.655899]}},{"country_code":"USA","name":"Formspring","founded_year":2009,"category_code":"web","latitude":39.9052263,"longitude":-86.0547016,"total_money_raised":"$14.3M","total_offices":1,"geoloc":{"type":"Point","coordinates":[-86.0547016,39.9052263]}},{"country_code":"USA","name":"isocket","founded_year":2009,"category_code":"advertising","latitude":37.55909,"longitude":-122.321836,"total_money_raised":"$10.1M","total_offices":1,"geoloc":{"type":"Point","coordinates":[-122.321836,37.55909]}},{"country_code":"USA","name":"Yipit","founded_year":2010,"category_code":"web","latitude":40.744618,"longitude":-73.987764,"total_money_raised":"$7.55M","total_offices":1,"geoloc":{"type":"Point","coordinates":[-73.987764,40.744618]}},{"country_code":"DEU","name":"fruux","founded_year":2010,"category_code":"web","latitude":51.9630088,"longitude":7.6267552,"total_money_raised":"$0","total_offices":1,"geoloc":{"type":"Point","coordinates":[7.6267552,51.9630088]}},{"country_code":"GBR","name":"Clowdy","founded_year":2013,"category_code":"web","latitude":53.4837067,"longitude":-2.2439492,"total_money_raised":"$0","total_offices":1,"geoloc":{"type":"Point","coordinates":[-2.2439492,53.4837067]}},{"country_code":"USA","name":"Carsala","founded_year":2009,"category_code":"web","latitude":37.870457,"longitude":-122.268354,"total_money_raised":"$0","total_offices":1,"geoloc":{"type":"Point","coordinates":[-122.268354,37.870457]}},{"country_code":"USA","name":"Queralt","founded_year":2011,"category_code":"enterprise","latitude":41.4778641,"longitude":-72.8190106,"total_money_raised":"$650k","total_offices":1,"geoloc":{"type":"Point","coordinates":[-72.8190106,41.4778641]}},{"country_code":"USA","name":"Social1000","founded_year":2009,"category_code":"network_hosting","latitude":61.216583,"longitude":-149.899597,"total_money_raised":"$0","total_offices":1,"geoloc":{"type":"Point","coordinates":[-149.899597,61.216583]}},{"country_code":"USA","name":"Unison Technologies","founded_year":2011,"category_code":"software","latitude":40.7645772,"longitude":-73.9799007,"total_money_raised":"$0","total_offices":1,"geoloc":{"type":"Point","coordinates":[-73.9799007,40.7645772]}},{"country_code":"FRA","name":"Jolicloud","founded_year":2009,"category_code":"enterprise","latitude":48.8566667,"longitude":2.3509871,"total_money_raised":"$4.2M","total_offices":1,"geoloc":{"type":"Point","coordinates":[2.3509871,48.8566667]}},{"country_code":"ESP","name":"Tengaged","founded_year":2010,"category_code":"games_video","latitude":41.4241228,"longitude":2.1634249,"total_money_raised":"$15k","total_offices":1,"geoloc":{"type":"Point","coordinates":[2.1634249,41.4241228]}},{"country_code":"USA","name":"Reachoo","founded_year":2010,"category_code":"software","latitude":26.2480738,"longitude":-80.135487,"total_money_raised":"$0","total_offices":1,"geoloc":{"type":"Point","coordinates":[-80.135487,26.2480738]}},{"country_code":"USA","name":"Indee","founded_year":2010,"category_code":"games_video","latitude":37.8053241,"longitude":-122.4052761,"total_money_raised":"$0","total_offices":1,"geoloc":{"type":"Point","coordinates":[-122.4052761,37.8053241]}},{"country_code":"USA","name":"Do You Wanna Hook Up?","founded_year":2009,"category_code":"web","latitude":40.5889016,"longitude":-73.9447994,"total_money_raised":"$0","total_offices":1,"geoloc":{"type":"Point","coordinates":[-73.9447994,40.5889016]}},{"country_code":"GBR","name":"GymFu","founded_year":2009,"category_code":"web","latitude":50.841938,"longitude":-1.7884785,"total_money_raised":"$0","total_offices":1,"geoloc":{"type":"Point","coordinates":[-1.7884785,50.841938]}},{"country_code":"NLD","name":"Wappalyzer","founded_year":2009,"category_code":"software","latitude":52.3624655,"longitude":5.2025569,"total_money_raised":"$0","total_offices":1,"geoloc":{"type":"Point","coordinates":[5.2025569,52.3624655]}},{"country_code":"MEX","name":"facelovefinder","founded_year":2009,"category_code":"web","latitude":25.5230058,"longitude":-103.4174464,"total_money_raised":"$0","total_offices":1,"geoloc":{"type":"Point","coordinates":[-103.4174464,25.5230058]}},{"country_code":"USA","name":"Infor","founded_year":2009,"category_code":"enterprise","latitude":40.740976,"longitude":-73.9947229,"total_money_raised":"$0","total_offices":1,"geoloc":{"type":"Point","coordinates":[-73.9947229,40.740976]}},{"country_code":"USA","name":"eCampusCash","founded_year":2010,"category_code":"web","latitude":40.650291,"longitude":-74.294395,"total_money_raised":"$0","total_offices":1,"geoloc":{"type":"Point","coordinates":[-74.294395,40.650291]}},{"country_code":"USA","name":"ScaleMP","founded_year":2009,"category_code":"software","latitude":37.3229727,"longitude":-122.0385792,"total_money_raised":"$8M","total_offices":1,"geoloc":{"type":"Point","coordinates":[-122.0385792,37.3229727]}},{"country_code":"USA","name":"Otalo","founded_year":2009,"category_code":"web","latitude":42.3756007,"longitude":-72.4436464,"total_money_raised":"$0","total_offices":1,"geoloc":{"type":"Point","coordinates":[-72.4436464,42.3756007]}},{"country_code":"USA","name":"Digital Meld","founded_year":2009,"category_code":"web","latitude":29.714229,"longitude":-95.527479,"total_money_raised":"$0","total_offices":1,"geoloc":{"type":"Point","coordinates":[-95.527479,29.714229]}},{"country_code":"USA","name":"VisualOn","founded_year":2011,"category_code":"software","latitude":37.270518,"longitude":-121.955879,"total_money_raised":"$3.1M","total_offices":1,"geoloc":{"type":"Point","coordinates":[-121.955879,37.270518]}},{"country_code":"CAN","name":"Twtapps","founded_year":2009,"category_code":"web","latitude":45.4928591,"longitude":-73.5825418,"total_money_raised":"$0","total_offices":1,"geoloc":{"type":"Point","coordinates":[-73.5825418,45.4928591]}},{"country_code":"USA","name":"Heyzap","founded_year":2009,"category_code":"games_video","latitude":37.7905538,"longitude":-122.4041485,"total_money_raised":"$7.97M","total_offices":1,"geoloc":{"type":"Point","coordinates":[-122.4041485,37.7905538]}},{"country_code":"USA","name":"iShopWiser","founded_year":2009,"category_code":"ecommerce","latitude":42.610112,"longitude":-71.442225,"total_money_raised":"$0","total_offices":1,"geoloc":{"type":"Point","coordinates":[-71.442225,42.610112]}},{"country_code":"USA","name":"GrouperEye","founded_year":2009,"category_code":"web","latitude":38.9169394,"longitude":-77.0852258,"total_money_raised":"$0","total_offices":1,"geoloc":{"type":"Point","coordinates":[-77.0852258,38.9169394]}},{"country_code":"USA","name":"MyFolio","founded_year":2009,"category_code":"network_hosting","latitude":37.317649,"longitude":-121.948532,"total_money_raised":"$0","total_offices":1,"geoloc":{"type":"Point","coordinates":[-121.948532,37.317649]}},{"country_code":"BEL","name":"Skilto","founded_year":2009,"category_code":"ecommerce","latitude":50.837051,"longitude":4.367612,"total_money_raised":"$0","total_offices":1,"geoloc":{"type":"Point","coordinates":[4.367612,50.837051]}},{"country_code":"USA","name":"ikywim creative","founded_year":2009,"category_code":"advertising","latitude":28.621704,"longitude":-81.290729,"total_money_raised":"$0","total_offices":1,"geoloc":{"type":"Point","coordinates":[-81.290729,28.621704]}},{"country_code":"USA","name":"Talari Networks","founded_year":2009,"category_code":"enterprise","latitude":37.317735,"longitude":-121.949417,"total_money_raised":"$45.1M","total_offices":2,"geoloc":{"type":"Point","coordinates":[-121.949417,37.317735]}},{"country_code":"USA","name":"Talari Networks","founded_year":2009,"category_code":"enterprise","latitude":35.8535092,"longitude":-78.8267112,"total_money_raised":"$45.1M","total_offices":2,"geoloc":{"type":"Point","coordinates":[-78.8267112,35.8535092]}},{"country_code":"USA","name":"Zammr","founded_year":2009,"category_code":"network_hosting","latitude":42.7904907,"longitude":-86.0667227,"total_money_raised":"$0","total_offices":1,"geoloc":{"type":"Point","coordinates":[-86.0667227,42.7904907]}},{"country_code":"NLD","name":"Interacto","founded_year":2009,"category_code":"web","latitude":51.3673409,"longitude":5.5858466,"total_money_raised":"$0","total_offices":1,"geoloc":{"type":"Point","coordinates":[5.5858466,51.3673409]}},{"country_code":"GBR","name":"Shutl","founded_year":2009,"category_code":"ecommerce","latitude":51.5196135,"longitude":-0.1020265,"total_money_raised":"\u00a37.66M","total_offices":1,"geoloc":{"type":"Point","coordinates":[-0.1020265,51.5196135]}},{"country_code":"USA","name":"Asurrent","founded_year":2009,"category_code":"web","latitude":34.013247,"longitude":-84.495636,"total_money_raised":"$0","total_offices":1,"geoloc":{"type":"Point","coordinates":[-84.495636,34.013247]}},{"country_code":"USA","name":"Ontology2","founded_year":2009,"category_code":"web","latitude":42.362886,"longitude":-76.356869,"total_money_raised":"$0","total_offices":1,"geoloc":{"type":"Point","coordinates":[-76.356869,42.362886]}},{"country_code":"USA","name":"Music For Busy People","founded_year":2009,"category_code":"games_video","latitude":40.727763,"longitude":-73.976169,"total_money_raised":"$0","total_offices":1,"geoloc":{"type":"Point","coordinates":[-73.976169,40.727763]}},{"country_code":"ESP","name":"alteregoweb","founded_year":2009,"category_code":"web","latitude":42.2674977,"longitude":2.9608395,"total_money_raised":"$0","total_offices":1,"geoloc":{"type":"Point","coordinates":[2.9608395,42.2674977]}},{"country_code":"USA","name":"kinDragon","founded_year":2010,"category_code":"software","latitude":27.4081935,"longitude":-82.5294065,"total_money_raised":"$0","total_offices":1,"geoloc":{"type":"Point","coordinates":[-82.5294065,27.4081935]}},{"country_code":"GBR","name":"VouChaCha","founded_year":2009,"category_code":"mobile","latitude":51.5001524,"longitude":-0.1262362,"total_money_raised":"$0","total_offices":1,"geoloc":{"type":"Point","coordinates":[-0.1262362,51.5001524]}},{"country_code":"USA","name":"CanvasGrafix","founded_year":2009,"category_code":"web","latitude":38.675833,"longitude":-90.482766,"total_money_raised":"$0","total_offices":1,"geoloc":{"type":"Point","coordinates":[-90.482766,38.675833]}},{"country_code":"USA","name":"Reflect7","founded_year":2009,"category_code":"mobile","latitude":40.802858,"longitude":-96.694751,"total_money_raised":"$0","total_offices":1,"geoloc":{"type":"Point","coordinates":[-96.694751,40.802858]}},{"country_code":"USA","name":"Tinychat","founded_year":2009,"category_code":"web","latitude":42.3756409,"longitude":-72.5196907,"total_money_raised":"$1.5M","total_offices":1,"geoloc":{"type":"Point","coordinates":[-72.5196907,42.3756409]}},{"country_code":"USA","name":"Transifex","founded_year":2009,"category_code":"software","latitude":37.4513629,"longitude":-122.1842112,"total_money_raised":"$0","total_offices":1,"geoloc":{"type":"Point","coordinates":[-122.1842112,37.4513629]}},{"country_code":"USA","name":"BASH Gaming","founded_year":2010,"category_code":"games_video","latitude":37.5561712,"longitude":-122.0780632,"total_money_raised":"$1M","total_offices":2,"geoloc":{"type":"Point","coordinates":[-122.0780632,37.5561712]}},{"country_code":"IND","name":"BASH Gaming","founded_year":2010,"category_code":"games_video","latitude":12.971606,"longitude":77.594376,"total_money_raised":"$1M","total_offices":2,"geoloc":{"type":"Point","coordinates":[77.594376,12.971606]}},{"country_code":"CZE","name":"Plupper","founded_year":2009,"category_code":"enterprise","latitude":50.0528269,"longitude":14.5120024,"total_money_raised":"$0","total_offices":1,"geoloc":{"type":"Point","coordinates":[14.5120024,50.0528269]}},{"country_code":"USA","name":"BidPlace SB","founded_year":2009,"category_code":"advertising","latitude":39.274034,"longitude":-76.5908291,"total_money_raised":"$0","total_offices":1,"geoloc":{"type":"Point","coordinates":[-76.5908291,39.274034]}},{"country_code":"USA","name":"imFORZA Marketing","founded_year":2009,"category_code":"advertising","latitude":33.92854,"longitude":-118.397818,"total_money_raised":"$0","total_offices":1,"geoloc":{"type":"Point","coordinates":[-118.397818,33.92854]}},{"country_code":"USA","name":"AppNeta","founded_year":2010,"category_code":"software","latitude":42.318138,"longitude":-71.24756,"total_money_raised":"$55.8M","total_offices":1,"geoloc":{"type":"Point","coordinates":[-71.24756,42.318138]}},{"country_code":"USA","name":"AppZero","founded_year":2009,"category_code":"software","latitude":42.6751888,"longitude":-71.1469003,"total_money_raised":"$15.1M","total_offices":1,"geoloc":{"type":"Point","coordinates":[-71.1469003,42.6751888]}},{"country_code":"IND","name":"PebbleForge","founded_year":2009,"category_code":"software","latitude":9.9396253,"longitude":76.2594981,"total_money_raised":"$0","total_offices":1,"geoloc":{"type":"Point","coordinates":[76.2594981,9.9396253]}},{"country_code":"USA","name":"TwitterCorp","founded_year":2009,"category_code":"web","latitude":46.0439,"longitude":-118.378229,"total_money_raised":"$0","total_offices":1,"geoloc":{"type":"Point","coordinates":[-118.378229,46.0439]}},{"country_code":"USA","name":"Action Sports Branding","founded_year":2009,"category_code":"ecommerce","latitude":42.3983662,"longitude":-71.0213788,"total_money_raised":"$0","total_offices":1,"geoloc":{"type":"Point","coordinates":[-71.0213788,42.3983662]}},{"country_code":"USA","name":"RealUp","founded_year":2009,"category_code":"ecommerce","latitude":35.7892464,"longitude":-78.7252479,"total_money_raised":"$0","total_offices":1,"geoloc":{"type":"Point","coordinates":[-78.7252479,35.7892464]}},{"country_code":"USA","name":"MyLikes","founded_year":2010,"category_code":"advertising","latitude":37.777995,"longitude":-122.408914,"total_money_raised":"$6.23M","total_offices":1,"geoloc":{"type":"Point","coordinates":[-122.408914,37.777995]}},{"country_code":"USA","name":"Clasilistados","founded_year":2009,"category_code":"advertising","latitude":37.515853,"longitude":-122.3050823,"total_money_raised":"$0","total_offices":1,"geoloc":{"type":"Point","coordinates":[-122.3050823,37.515853]}},{"country_code":"GBR","name":"Cognitive Match","founded_year":2009,"category_code":"advertising","latitude":51.5119418,"longitude":-0.0936688,"total_money_raised":"$10.2M","total_offices":4,"geoloc":{"type":"Point","coordinates":[-0.0936688,51.5119418]}},{"country_code":"USA","name":"Cognitive Match","founded_year":2009,"category_code":"advertising","latitude":40.7454098,"longitude":-73.9822211,"total_money_raised":"$10.2M","total_offices":4,"geoloc":{"type":"Point","coordinates":[-73.9822211,40.7454098]}},{"country_code":"USA","name":"Cognitive Match","founded_year":2009,"category_code":"advertising","latitude":37.380653,"longitude":-122.1156934,"total_money_raised":"$10.2M","total_offices":4,"geoloc":{"type":"Point","coordinates":[-122.1156934,37.380653]}},{"country_code":"USA","name":"Cognitive Match","founded_year":2009,"category_code":"advertising","latitude":41.2601663,"longitude":-96.0791435,"total_money_raised":"$10.2M","total_offices":4,"geoloc":{"type":"Point","coordinates":[-96.0791435,41.2601663]}},{"country_code":"USA","name":"Simulmedia","founded_year":2009,"category_code":"advertising","latitude":40.727216,"longitude":-73.994797,"total_money_raised":"$57.3M","total_offices":1,"geoloc":{"type":"Point","coordinates":[-73.994797,40.727216]}},{"country_code":"USA","name":"Tenant Txt","founded_year":2009,"category_code":"mobile","latitude":29.733947,"longitude":-95.5393869,"total_money_raised":"$0","total_offices":1,"geoloc":{"type":"Point","coordinates":[-95.5393869,29.733947]}},{"country_code":"GBR","name":"rent2friend","founded_year":2009,"category_code":"web","latitude":51.5001524,"longitude":-0.1262362,"total_money_raised":"$0","total_offices":1,"geoloc":{"type":"Point","coordinates":[-0.1262362,51.5001524]}},{"country_code":"USA","name":"Wolfram Alpha","founded_year":2009,"category_code":"web","latitude":40.097071,"longitude":-88.245638,"total_money_raised":"$0","total_offices":1,"geoloc":{"type":"Point","coordinates":[-88.245638,40.097071]}},{"country_code":"USA","name":"Gridstore","founded_year":2009,"category_code":"network_hosting","latitude":37.4189073,"longitude":-122.0884286,"total_money_raised":"\u20ac25M","total_offices":1,"geoloc":{"type":"Point","coordinates":[-122.0884286,37.4189073]}},{"country_code":"USA","name":"VitalLock","founded_year":2009,"category_code":"web","latitude":42.362856,"longitude":-71.083762,"total_money_raised":"$0","total_offices":1,"geoloc":{"type":"Point","coordinates":[-71.083762,42.362856]}},{"country_code":"USA","name":"OBE Pro","founded_year":2009,"category_code":"software","latitude":28.1524632,"longitude":-80.5883964,"total_money_raised":"$0","total_offices":1,"geoloc":{"type":"Point","coordinates":[-80.5883964,28.1524632]}},{"country_code":"USA","name":"Cuteness Pet Community","founded_year":2009,"category_code":"web","latitude":33.989029,"longitude":-118.462421,"total_money_raised":"$0","total_offices":1,"geoloc":{"type":"Point","coordinates":[-118.462421,33.989029]}},{"country_code":"DEU","name":"yiid","founded_year":2009,"category_code":"web","latitude":49.5507557,"longitude":8.6759098,"total_money_raised":"$0","total_offices":1,"geoloc":{"type":"Point","coordinates":[8.6759098,49.5507557]}},{"country_code":"USA","name":"Mashed jobs","founded_year":2009,"category_code":"web","latitude":42.3584308,"longitude":-71.0597732,"total_money_raised":"$0","total_offices":1,"geoloc":{"type":"Point","coordinates":[-71.0597732,42.3584308]}},{"country_code":"USA","name":"Guias Local","founded_year":2009,"category_code":"search","latitude":28.7029,"longitude":-81.3387,"total_money_raised":"$0","total_offices":1,"geoloc":{"type":"Point","coordinates":[-81.3387,28.7029]}},{"country_code":"FRA","name":"PathMotion","founded_year":2009,"category_code":"web","latitude":48.8704331,"longitude":2.3449804,"total_money_raised":"$0","total_offices":1,"geoloc":{"type":"Point","coordinates":[2.3449804,48.8704331]}},{"country_code":"FIN","name":"Fotomina","founded_year":2009,"category_code":"web","latitude":60.123399,"longitude":24.4280745,"total_money_raised":"$0","total_offices":1,"geoloc":{"type":"Point","coordinates":[24.4280745,60.123399]}},{"country_code":"USA","name":"IBWIRE Inc","founded_year":2009,"category_code":"advertising","latitude":37.7944822,"longitude":-122.4030739,"total_money_raised":"$0","total_offices":1,"geoloc":{"type":"Point","coordinates":[-122.4030739,37.7944822]}},{"country_code":"USA","name":"Setster","founded_year":2009,"category_code":"software","latitude":34.0909811,"longitude":-118.325739,"total_money_raised":"$0","total_offices":1,"geoloc":{"type":"Point","coordinates":[-118.325739,34.0909811]}},{"country_code":"USA","name":"GameChanger Media","founded_year":2009,"category_code":"software","latitude":40.7078343,"longitude":-74.0136605,"total_money_raised":"$3.64M","total_offices":1,"geoloc":{"type":"Point","coordinates":[-74.0136605,40.7078343]}},{"country_code":"USA","name":"Z2Live","founded_year":2009,"category_code":"games_video","latitude":47.6103008,"longitude":-122.3399782,"total_money_raised":"$6.5M","total_offices":1,"geoloc":{"type":"Point","coordinates":[-122.3399782,47.6103008]}},{"country_code":"DEU","name":"Gate 53|10 Technologies","founded_year":2009,"category_code":"web","latitude":53.5736401,"longitude":10.0184565,"total_money_raised":"\u20ac141k","total_offices":1,"geoloc":{"type":"Point","coordinates":[10.0184565,53.5736401]}},{"country_code":"USA","name":"Y Media Labs","founded_year":2009,"category_code":"mobile","latitude":37.494561,"longitude":-122.229097,"total_money_raised":"$0","total_offices":1,"geoloc":{"type":"Point","coordinates":[-122.229097,37.494561]}},{"country_code":"LTU","name":"PunchT","founded_year":2009,"category_code":"web","latitude":54.6893865,"longitude":25.2800243,"total_money_raised":"$0","total_offices":1,"geoloc":{"type":"Point","coordinates":[25.2800243,54.6893865]}},{"country_code":"USA","name":"Tongal","founded_year":2009,"category_code":"web","latitude":34.007112,"longitude":-118.489748,"total_money_raised":"$16M","total_offices":1,"geoloc":{"type":"Point","coordinates":[-118.489748,34.007112]}},{"country_code":"USA","name":"oneforty","founded_year":2009,"category_code":"enterprise","latitude":42.364014,"longitude":-71.101375,"total_money_raised":"$2.35M","total_offices":1,"geoloc":{"type":"Point","coordinates":[-71.101375,42.364014]}},{"country_code":"USA","name":"Rhyme Library","founded_year":2009,"category_code":"mobile","latitude":38.2571486,"longitude":-85.7617724,"total_money_raised":"$0","total_offices":1,"geoloc":{"type":"Point","coordinates":[-85.7617724,38.2571486]}},{"country_code":"USA","name":"Blog Traffic Exchange","founded_year":2009,"category_code":"web","latitude":37.4484914,"longitude":-122.1802812,"total_money_raised":"$0","total_offices":1,"geoloc":{"type":"Point","coordinates":[-122.1802812,37.4484914]}},{"country_code":"USA","name":"Chartbeat","founded_year":2009,"category_code":"analytics","latitude":40.73343,"longitude":-73.990967,"total_money_raised":"$14.5M","total_offices":1,"geoloc":{"type":"Point","coordinates":[-73.990967,40.73343]}},{"country_code":"USA","name":"crush tweet","founded_year":2009,"category_code":"software","latitude":32.920073,"longitude":-96.740444,"total_money_raised":"$0","total_offices":1,"geoloc":{"type":"Point","coordinates":[-96.740444,32.920073]}},{"country_code":"AUS","name":"Trigora","founded_year":2009,"category_code":"web","latitude":-37.742893,"longitude":145.065044,"total_money_raised":"$0","total_offices":1,"geoloc":{"type":"Point","coordinates":[145.065044,-37.742893]}},{"country_code":"USA","name":"Talent Spree","founded_year":2009,"category_code":"web","latitude":38.765172,"longitude":-75.211743,"total_money_raised":"$0","total_offices":1,"geoloc":{"type":"Point","coordinates":[-75.211743,38.765172]}},{"country_code":"FIN","name":"Novelion Media","founded_year":2009,"category_code":"enterprise","latitude":61.0626853,"longitude":28.0978108,"total_money_raised":"$0","total_offices":1,"geoloc":{"type":"Point","coordinates":[28.0978108,61.0626853]}},{"country_code":"USA","name":"RipCloud","founded_year":2012,"category_code":"network_hosting","latitude":37.7581148,"longitude":-122.4184108,"total_money_raised":"$0","total_offices":1,"geoloc":{"type":"Point","coordinates":[-122.4184108,37.7581148]}},{"country_code":"PRT","name":"Weebiz","founded_year":2009,"category_code":"ecommerce","latitude":39.7366963,"longitude":-8.7985658,"total_money_raised":"$0","total_offices":1,"geoloc":{"type":"Point","coordinates":[-8.7985658,39.7366963]}},{"country_code":"BRA","name":"Brandsclub","founded_year":2009,"category_code":"ecommerce","latitude":-23.5489433,"longitude":-46.6388182,"total_money_raised":"$17M","total_offices":1,"geoloc":{"type":"Point","coordinates":[-46.6388182,-23.5489433]}},{"country_code":"GBR","name":"Plug in SEO","founded_year":2012,"category_code":"enterprise","latitude":51.5001524,"longitude":-0.1262362,"total_money_raised":"$0","total_offices":1,"geoloc":{"type":"Point","coordinates":[-0.1262362,51.5001524]}},{"country_code":"RUS","name":"CineSoft","founded_year":2009,"category_code":"software","latitude":55.7794043,"longitude":37.6899674,"total_money_raised":"$0","total_offices":1,"geoloc":{"type":"Point","coordinates":[37.6899674,55.7794043]}},{"country_code":"USA","name":"CoTweet","founded_year":2009,"category_code":"advertising","latitude":37.7405936,"longitude":-122.3764714,"total_money_raised":"$1.1M","total_offices":1,"geoloc":{"type":"Point","coordinates":[-122.3764714,37.7405936]}},{"country_code":"FRA","name":"Antelink","founded_year":2009,"category_code":"software","latitude":48.8524775,"longitude":2.3660117,"total_money_raised":"$0","total_offices":1,"geoloc":{"type":"Point","coordinates":[2.3660117,48.8524775]}},{"country_code":"USA","name":"VetAnyware","founded_year":2009,"category_code":"enterprise","latitude":38.552782,"longitude":-121.734779,"total_money_raised":"$0","total_offices":1,"geoloc":{"type":"Point","coordinates":[-121.734779,38.552782]}},{"country_code":"USA","name":"Wowd","founded_year":2009,"category_code":"search","latitude":37.448598,"longitude":-122.158497,"total_money_raised":"$0","total_offices":1,"geoloc":{"type":"Point","coordinates":[-122.158497,37.448598]}},{"country_code":"USA","name":"Twazzup","founded_year":2009,"category_code":"web","latitude":37.775196,"longitude":-122.419204,"total_money_raised":"$0","total_offices":1,"geoloc":{"type":"Point","coordinates":[-122.419204,37.775196]}},{"country_code":"USA","name":"BlazingStreams","founded_year":2009,"category_code":"web","latitude":37.555111,"longitude":-122.265123,"total_money_raised":"$0","total_offices":1,"geoloc":{"type":"Point","coordinates":[-122.265123,37.555111]}},{"country_code":"GBR","name":"Tweenjo","founded_year":2009,"category_code":"web","latitude":51.5137747,"longitude":-0.1459893,"total_money_raised":"$0","total_offices":1,"geoloc":{"type":"Point","coordinates":[-0.1459893,51.5137747]}},{"country_code":"USA","name":"psychiatryRounds","founded_year":2009,"category_code":"web","latitude":37.400465,"longitude":-122.073003,"total_money_raised":"$0","total_offices":1,"geoloc":{"type":"Point","coordinates":[-122.073003,37.400465]}},{"country_code":"USA","name":"Shopseen","founded_year":2013,"category_code":"ecommerce","latitude":37.772323,"longitude":-122.214897,"total_money_raised":"$0","total_offices":1,"geoloc":{"type":"Point","coordinates":[-122.214897,37.772323]}},{"country_code":"GBR","name":"Space Spare","founded_year":2009,"category_code":"web","latitude":51.5603951,"longitude":-0.1365725,"total_money_raised":"$0","total_offices":1,"geoloc":{"type":"Point","coordinates":[-0.1365725,51.5603951]}},{"country_code":"DEU","name":"Webteilchen","founded_year":2009,"category_code":"web","latitude":52.5296736,"longitude":13.6281888,"total_money_raised":"$0","total_offices":1,"geoloc":{"type":"Point","coordinates":[13.6281888,52.5296736]}},{"country_code":"USA","name":"Gameleaper","founded_year":2009,"category_code":"games_video","latitude":32.8270045,"longitude":-96.8432224,"total_money_raised":"$0","total_offices":1,"geoloc":{"type":"Point","coordinates":[-96.8432224,32.8270045]}},{"country_code":"USA","name":"Catchafire","founded_year":2009,"category_code":"web","latitude":40.746417,"longitude":-73.983171,"total_money_raised":"$400k","total_offices":1,"geoloc":{"type":"Point","coordinates":[-73.983171,40.746417]}},{"country_code":"USA","name":"Ikanos","founded_year":2009,"category_code":"enterprise","latitude":37.4734314,"longitude":-121.9417078,"total_money_raised":"$42M","total_offices":1,"geoloc":{"type":"Point","coordinates":[-121.9417078,37.4734314]}},{"country_code":"DEU","name":"quoobs","founded_year":2009,"category_code":"web","latitude":52.5189904,"longitude":13.4663753,"total_money_raised":"$0","total_offices":1,"geoloc":{"type":"Point","coordinates":[13.4663753,52.5189904]}},{"country_code":"USA","name":"Hayen Company","founded_year":2011,"category_code":"games_video","latitude":34.019114,"longitude":-81.004871,"total_money_raised":"$0","total_offices":1,"geoloc":{"type":"Point","coordinates":[-81.004871,34.019114]}},{"country_code":"DNK","name":"1calendar","founded_year":2009,"category_code":"software","latitude":55.6770321,"longitude":12.5751278,"total_money_raised":"$40k","total_offices":2,"geoloc":{"type":"Point","coordinates":[12.5751278,55.6770321]}},{"country_code":"DNK","name":"1calendar","founded_year":2009,"category_code":"software","latitude":55.6802318,"longitude":12.524884,"total_money_raised":"$40k","total_offices":2,"geoloc":{"type":"Point","coordinates":[12.524884,55.6802318]}},{"country_code":"DEU","name":"printium","founded_year":2009,"category_code":"enterprise","latitude":52.4055581,"longitude":13.0673441,"total_money_raised":"$0","total_offices":1,"geoloc":{"type":"Point","coordinates":[13.0673441,52.4055581]}},{"country_code":"USA","name":"YesFreelance","founded_year":2009,"category_code":"ecommerce","latitude":41.8819283,"longitude":-87.6445473,"total_money_raised":"$0","total_offices":1,"geoloc":{"type":"Point","coordinates":[-87.6445473,41.8819283]}},{"country_code":"USA","name":"BIT TV","founded_year":2009,"category_code":"games_video","latitude":45.488419,"longitude":-122.642156,"total_money_raised":"$0","total_offices":1,"geoloc":{"type":"Point","coordinates":[-122.642156,45.488419]}},{"country_code":"AUT","name":"all140","founded_year":2009,"category_code":"web","latitude":48.2114213,"longitude":16.3736319,"total_money_raised":"$0","total_offices":1,"geoloc":{"type":"Point","coordinates":[16.3736319,48.2114213]}},{"country_code":"USA","name":"AlphaPoint Technology","founded_year":2009,"category_code":"software","latitude":27.3858,"longitude":-82.423,"total_money_raised":"$0","total_offices":1,"geoloc":{"type":"Point","coordinates":[-82.423,27.3858]}},{"country_code":"NLD","name":"Distimo","founded_year":2009,"category_code":"mobile","latitude":52.0848526,"longitude":5.1682449,"total_money_raised":"$0","total_offices":1,"geoloc":{"type":"Point","coordinates":[5.1682449,52.0848526]}},{"country_code":"IND","name":"BigSpire Technologies","founded_year":2009,"category_code":"ecommerce","latitude":13.060416,"longitude":80.249634,"total_money_raised":"$0","total_offices":1,"geoloc":{"type":"Point","coordinates":[80.249634,13.060416]}},{"country_code":"USA","name":"Delivr","founded_year":2009,"category_code":"advertising","latitude":40.756054,"longitude":-73.986951,"total_money_raised":"$0","total_offices":1,"geoloc":{"type":"Point","coordinates":[-73.986951,40.756054]}},{"country_code":"USA","name":"AppStoreHQ","founded_year":2009,"category_code":"mobile","latitude":47.6447802,"longitude":-122.325878,"total_money_raised":"$0","total_offices":1,"geoloc":{"type":"Point","coordinates":[-122.325878,47.6447802]}},{"country_code":"GBR","name":"Pressitt","founded_year":2009,"category_code":"network_hosting","latitude":50.732295,"longitude":-1.818289,"total_money_raised":"$0","total_offices":1,"geoloc":{"type":"Point","coordinates":[-1.818289,50.732295]}},{"country_code":"USA","name":"Nextstop","founded_year":2009,"category_code":"web","latitude":37.7710177,"longitude":-122.4025976,"total_money_raised":"$0","total_offices":1,"geoloc":{"type":"Point","coordinates":[-122.4025976,37.7710177]}},{"country_code":"IND","name":"HobbyAdda","founded_year":2009,"category_code":"web","latitude":28.635308,"longitude":77.22496,"total_money_raised":"$0","total_offices":1,"geoloc":{"type":"Point","coordinates":[77.22496,28.635308]}},{"country_code":"USA","name":"Graticle","founded_year":2009,"category_code":"design","latitude":45.7968414,"longitude":-122.6931439,"total_money_raised":"$0","total_offices":1,"geoloc":{"type":"Point","coordinates":[-122.6931439,45.7968414]}},{"country_code":"FIN","name":"Pikkoo","founded_year":2009,"category_code":"mobile","latitude":65.0127875,"longitude":25.470902,"total_money_raised":"$0","total_offices":1,"geoloc":{"type":"Point","coordinates":[25.470902,65.0127875]}},{"country_code":"FRA","name":"OCTALINE","founded_year":2009,"category_code":"web","latitude":48.8964115,"longitude":2.2863338,"total_money_raised":"$0","total_offices":1,"geoloc":{"type":"Point","coordinates":[2.2863338,48.8964115]}},{"country_code":"USA","name":"Book'd","founded_year":2009,"category_code":"software","latitude":38.9569894,"longitude":-92.3227556,"total_money_raised":"$0","total_offices":1,"geoloc":{"type":"Point","coordinates":[-92.3227556,38.9569894]}},{"country_code":"DEU","name":"makandra","founded_year":2009,"category_code":"software","latitude":48.3400291,"longitude":10.9059804,"total_money_raised":"$0","total_offices":1,"geoloc":{"type":"Point","coordinates":[10.9059804,48.3400291]}},{"country_code":"USA","name":"Eco-Rate","founded_year":2009,"category_code":"web","latitude":47.715013,"longitude":-122.320283,"total_money_raised":"$0","total_offices":1,"geoloc":{"type":"Point","coordinates":[-122.320283,47.715013]}},{"country_code":"USA","name":"Contenture","founded_year":2009,"category_code":"ecommerce","latitude":45.523875,"longitude":-122.670399,"total_money_raised":"$0","total_offices":1,"geoloc":{"type":"Point","coordinates":[-122.670399,45.523875]}},{"country_code":"USA","name":"Shareaholic","founded_year":2009,"category_code":"web","latitude":42.3647559,"longitude":-71.1032591,"total_money_raised":"$5.46M","total_offices":1,"geoloc":{"type":"Point","coordinates":[-71.1032591,42.3647559]}},{"country_code":"USA","name":"Statugle","founded_year":2009,"category_code":"web","latitude":41.9205483,"longitude":-87.6531805,"total_money_raised":"$0","total_offices":1,"geoloc":{"type":"Point","coordinates":[-87.6531805,41.9205483]}},{"country_code":"BRA","name":"DP7 Digital","founded_year":2009,"category_code":"software","latitude":-23.5815208,"longitude":-46.6773686,"total_money_raised":"$100k","total_offices":2,"geoloc":{"type":"Point","coordinates":[-46.6773686,-23.5815208]}},{"country_code":"BRA","name":"DP7 Digital","founded_year":2009,"category_code":"software","latitude":-27.5995476,"longitude":-48.5483418,"total_money_raised":"$100k","total_offices":2,"geoloc":{"type":"Point","coordinates":[-48.5483418,-27.5995476]}},{"country_code":"USA","name":"Flixxy","founded_year":2010,"category_code":"games_video","latitude":27.972364,"longitude":-82.800333,"total_money_raised":"$0","total_offices":1,"geoloc":{"type":"Point","coordinates":[-82.800333,27.972364]}},{"country_code":"USA","name":"AppNinjas","founded_year":2009,"category_code":"mobile","latitude":37.7983181,"longitude":-122.4000032,"total_money_raised":"$0","total_offices":1,"geoloc":{"type":"Point","coordinates":[-122.4000032,37.7983181]}},{"country_code":"POL","name":"JustProto","founded_year":2009,"category_code":"software","latitude":54.520135,"longitude":18.5416342,"total_money_raised":"$0","total_offices":1,"geoloc":{"type":"Point","coordinates":[18.5416342,54.520135]}},{"country_code":"USA","name":"ToolzDO","founded_year":2009,"category_code":"web","latitude":26.280346,"longitude":-80.186473,"total_money_raised":"$0","total_offices":1,"geoloc":{"type":"Point","coordinates":[-80.186473,26.280346]}},{"country_code":"USA","name":"jamWee","founded_year":2009,"category_code":"web","latitude":40.555566,"longitude":-74.283346,"total_money_raised":"$0","total_offices":1,"geoloc":{"type":"Point","coordinates":[-74.283346,40.555566]}},{"country_code":"USA","name":"Secure BI","founded_year":2009,"category_code":"enterprise","latitude":38.5621283,"longitude":-121.7324992,"total_money_raised":"$0","total_offices":1,"geoloc":{"type":"Point","coordinates":[-121.7324992,38.5621283]}},{"country_code":"ESP","name":"Hostarting","founded_year":2009,"category_code":"web","latitude":39.8725119,"longitude":-4.0210296,"total_money_raised":"$0","total_offices":1,"geoloc":{"type":"Point","coordinates":[-4.0210296,39.8725119]}},{"country_code":"CAN","name":"QxMD Software","founded_year":2009,"category_code":"mobile","latitude":49.261226,"longitude":-123.1139268,"total_money_raised":"$0","total_offices":1,"geoloc":{"type":"Point","coordinates":[-123.1139268,49.261226]}},{"country_code":"DEU","name":"expertnews","founded_year":2009,"category_code":"web","latitude":53.5688101,"longitude":9.9819779,"total_money_raised":"$0","total_offices":1,"geoloc":{"type":"Point","coordinates":[9.9819779,53.5688101]}},{"country_code":"USA","name":"Flaggpole","founded_year":2009,"category_code":"web","latitude":47.620973,"longitude":-122.347276,"total_money_raised":"$0","total_offices":1,"geoloc":{"type":"Point","coordinates":[-122.347276,47.620973]}},{"country_code":"USA","name":"ReferenceBot","founded_year":2009,"category_code":"web","latitude":26.706239,"longitude":-80.0520862,"total_money_raised":"$0","total_offices":1,"geoloc":{"type":"Point","coordinates":[-80.0520862,26.706239]}},{"country_code":"USA","name":"The Resumator","founded_year":2009,"category_code":"software","latitude":40.438423,"longitude":-80.001933,"total_money_raised":"$2.98M","total_offices":1,"geoloc":{"type":"Point","coordinates":[-80.001933,40.438423]}},{"country_code":"USA","name":"Carrier Mobile","founded_year":2009,"category_code":"mobile","latitude":42.2802707,"longitude":-83.7422325,"total_money_raised":"$10k","total_offices":1,"geoloc":{"type":"Point","coordinates":[-83.7422325,42.2802707]}},{"country_code":"USA","name":"AppUseful","founded_year":2009,"category_code":"web","latitude":30.2961708,"longitude":-97.7389543,"total_money_raised":"$0","total_offices":1,"geoloc":{"type":"Point","coordinates":[-97.7389543,30.2961708]}},{"country_code":"ESP","name":"Undead Code Studios","founded_year":2009,"category_code":"games_video","latitude":40.6367104,"longitude":-3.9980485,"total_money_raised":"$0","total_offices":1,"geoloc":{"type":"Point","coordinates":[-3.9980485,40.6367104]}},{"country_code":"USA","name":"College Art Online","founded_year":2009,"category_code":"ecommerce","latitude":33.519503,"longitude":-111.941542,"total_money_raised":"$0","total_offices":1,"geoloc":{"type":"Point","coordinates":[-111.941542,33.519503]}},{"country_code":"USA","name":"Fliptop","founded_year":2010,"category_code":"enterprise","latitude":37.775206,"longitude":-122.419209,"total_money_raised":"$6.79M","total_offices":1,"geoloc":{"type":"Point","coordinates":[-122.419209,37.775206]}},{"country_code":"IND","name":"IndiaOnAPage","founded_year":2009,"category_code":"software","latitude":12.9164537,"longitude":77.6101165,"total_money_raised":"$0","total_offices":1,"geoloc":{"type":"Point","coordinates":[77.6101165,12.9164537]}},{"country_code":"USA","name":"ArtNeighbor","founded_year":2009,"category_code":"web","latitude":40.7489381,"longitude":-73.9918181,"total_money_raised":"$0","total_offices":1,"geoloc":{"type":"Point","coordinates":[-73.9918181,40.7489381]}},{"country_code":"USA","name":"RentShout","founded_year":2009,"category_code":"advertising","latitude":35.1214086,"longitude":-120.619506,"total_money_raised":"$0","total_offices":1,"geoloc":{"type":"Point","coordinates":[-120.619506,35.1214086]}},{"country_code":"USA","name":"ClickFuel","founded_year":2009,"category_code":"advertising","latitude":42.3406534,"longitude":-71.0680027,"total_money_raised":"$9M","total_offices":1,"geoloc":{"type":"Point","coordinates":[-71.0680027,42.3406534]}},{"country_code":"AUS","name":"ekidnaworld","founded_year":2010,"category_code":"games_video","latitude":-27.4574861,"longitude":153.033686,"total_money_raised":"$0","total_offices":1,"geoloc":{"type":"Point","coordinates":[153.033686,-27.4574861]}},{"country_code":"PRT","name":"Movip","founded_year":2009,"category_code":"web","latitude":38.7071631,"longitude":-9.135517,"total_money_raised":"$0","total_offices":1,"geoloc":{"type":"Point","coordinates":[-9.135517,38.7071631]}},{"country_code":"CAN","name":"mTrip","founded_year":2009,"category_code":"mobile","latitude":45.503971,"longitude":-73.57236,"total_money_raised":"$0","total_offices":1,"geoloc":{"type":"Point","coordinates":[-73.57236,45.503971]}},{"country_code":"USA","name":"Gravity","founded_year":2009,"category_code":"advertising","latitude":34.007967,"longitude":-118.489681,"total_money_raised":"$20.6M","total_offices":1,"geoloc":{"type":"Point","coordinates":[-118.489681,34.007967]}},{"country_code":"CHN","name":"Maopao","founded_year":2009,"category_code":"web","latitude":39.9081726,"longitude":116.3979471,"total_money_raised":"$0","total_offices":1,"geoloc":{"type":"Point","coordinates":[116.3979471,39.9081726]}},{"country_code":"DEU","name":"scoyo","founded_year":2009,"category_code":"games_video","latitude":53.5622698,"longitude":9.9490139,"total_money_raised":"$0","total_offices":1,"geoloc":{"type":"Point","coordinates":[9.9490139,53.5622698]}},{"country_code":"USA","name":"Spurd, Inc","founded_year":2009,"category_code":"web","latitude":40.675234,"longitude":-73.971043,"total_money_raised":"$0","total_offices":1,"geoloc":{"type":"Point","coordinates":[-73.971043,40.675234]}},{"country_code":"GBR","name":"OnePage","founded_year":2009,"category_code":"web","latitude":53.3706564,"longitude":-1.5613493,"total_money_raised":"$0","total_offices":1,"geoloc":{"type":"Point","coordinates":[-1.5613493,53.3706564]}},{"country_code":"USA","name":"Status Search","founded_year":2009,"category_code":"search","latitude":25.774252,"longitude":-80.190262,"total_money_raised":"$0","total_offices":2,"geoloc":{"type":"Point","coordinates":[-80.190262,25.774252]}},{"country_code":"ISR","name":"Status Search","founded_year":2009,"category_code":"search","latitude":32.0554,"longitude":34.7595,"total_money_raised":"$0","total_offices":2,"geoloc":{"type":"Point","coordinates":[34.7595,32.0554]}},{"country_code":"DEU","name":"FindandSmile","founded_year":2009,"category_code":"web","latitude":48.9974246,"longitude":8.4649954,"total_money_raised":"$0","total_offices":1,"geoloc":{"type":"Point","coordinates":[8.4649954,48.9974246]}},{"country_code":"USA","name":"Covet Shop","founded_year":2009,"category_code":"ecommerce","latitude":40.72874,"longitude":-73.989324,"total_money_raised":"$0","total_offices":1,"geoloc":{"type":"Point","coordinates":[-73.989324,40.72874]}},{"country_code":"USA","name":"Udorse","founded_year":2009,"category_code":"web","latitude":40.756054,"longitude":-73.986951,"total_money_raised":"$500k","total_offices":1,"geoloc":{"type":"Point","coordinates":[-73.986951,40.756054]}},{"country_code":"USA","name":"Meuzer","founded_year":2009,"category_code":"games_video","latitude":37.320052,"longitude":-121.877636,"total_money_raised":"$0","total_offices":1,"geoloc":{"type":"Point","coordinates":[-121.877636,37.320052]}},{"country_code":"FRA","name":"YesOrNow","founded_year":2009,"category_code":"web","latitude":48.882769,"longitude":2.336453,"total_money_raised":"$0","total_offices":1,"geoloc":{"type":"Point","coordinates":[2.336453,48.882769]}},{"country_code":"FRA","name":"HURRYCAM","founded_year":2009,"category_code":"web","latitude":48.8566667,"longitude":2.3509871,"total_money_raised":"$0","total_offices":1,"geoloc":{"type":"Point","coordinates":[2.3509871,48.8566667]}},{"country_code":"USA","name":"SharesPost","founded_year":2009,"category_code":"ecommerce","latitude":34.007967,"longitude":-118.489681,"total_money_raised":"$0","total_offices":1,"geoloc":{"type":"Point","coordinates":[-118.489681,34.007967]}},{"country_code":"GBR","name":"Bar Exchange","founded_year":2009,"category_code":"web","latitude":51.5395914,"longitude":-0.1525048,"total_money_raised":"$0","total_offices":1,"geoloc":{"type":"Point","coordinates":[-0.1525048,51.5395914]}},{"country_code":"CAN","name":"Nirvana","founded_year":2009,"category_code":"software","latitude":45.5058782,"longitude":-73.5673333,"total_money_raised":"$0","total_offices":1,"geoloc":{"type":"Point","coordinates":[-73.5673333,45.5058782]}},{"country_code":"USA","name":"Kloud Mobile","founded_year":2009,"category_code":"mobile","latitude":26.0607497,"longitude":-80.1899371,"total_money_raised":"$0","total_offices":1,"geoloc":{"type":"Point","coordinates":[-80.1899371,26.0607497]}},{"country_code":"USA","name":"Finest Expert","founded_year":2009,"category_code":"web","latitude":37.775196,"longitude":-122.419204,"total_money_raised":"$0","total_offices":1,"geoloc":{"type":"Point","coordinates":[-122.419204,37.775196]}},{"country_code":"CAN","name":"Buddingup","founded_year":2009,"category_code":"web","latitude":43.477552,"longitude":-80.534491,"total_money_raised":"$0","total_offices":1,"geoloc":{"type":"Point","coordinates":[-80.534491,43.477552]}},{"country_code":"USA","name":"BitMethod","founded_year":2009,"category_code":"mobile","latitude":41.581232,"longitude":-93.621998,"total_money_raised":"$50k","total_offices":1,"geoloc":{"type":"Point","coordinates":[-93.621998,41.581232]}},{"country_code":"USA","name":"ZIPQODE","founded_year":2009,"category_code":"web","latitude":39.951639,"longitude":-75.163808,"total_money_raised":"$0","total_offices":1,"geoloc":{"type":"Point","coordinates":[-75.163808,39.951639]}},{"country_code":"USA","name":"Eventric","founded_year":2009,"category_code":"software","latitude":41.9174637,"longitude":-87.6664837,"total_money_raised":"$0","total_offices":1,"geoloc":{"type":"Point","coordinates":[-87.6664837,41.9174637]}},{"country_code":"USA","name":"Strategist News","founded_year":2009,"category_code":"web","latitude":40.7489381,"longitude":-73.9918181,"total_money_raised":"$0","total_offices":1,"geoloc":{"type":"Point","coordinates":[-73.9918181,40.7489381]}},{"country_code":"USA","name":"VistaGen Therapeutics","founded_year":2013,"category_code":"biotech","latitude":37.6656476,"longitude":-122.3843489,"total_money_raised":"$41.3M","total_offices":1,"geoloc":{"type":"Point","coordinates":[-122.3843489,37.6656476]}},{"country_code":"GBR","name":"AgreeYourFee","founded_year":2009,"category_code":"advertising","latitude":51.5001524,"longitude":-0.1262362,"total_money_raised":"$0","total_offices":1,"geoloc":{"type":"Point","coordinates":[-0.1262362,51.5001524]}},{"country_code":"USA","name":"Applied Genetics Technologies Corporation","founded_year":2009,"category_code":"biotech","latitude":29.7847641,"longitude":-82.4768036,"total_money_raised":"$78.1M","total_offices":1,"geoloc":{"type":"Point","coordinates":[-82.4768036,29.7847641]}},{"country_code":"FRA","name":"Ykone","founded_year":2009,"category_code":"web","latitude":48.8566667,"longitude":2.3509871,"total_money_raised":"\u20ac1.5M","total_offices":1,"geoloc":{"type":"Point","coordinates":[2.3509871,48.8566667]}},{"country_code":"DEU","name":"youserbase","founded_year":2009,"category_code":"network_hosting","latitude":53.14967,"longitude":8.200653,"total_money_raised":"$0","total_offices":1,"geoloc":{"type":"Point","coordinates":[8.200653,53.14967]}},{"country_code":"USA","name":"Clovis Oncology","founded_year":2009,"category_code":"biotech","latitude":40.026,"longitude":-105.259041,"total_money_raised":"$357M","total_offices":1,"geoloc":{"type":"Point","coordinates":[-105.259041,40.026]}},{"country_code":"USA","name":"ResuWe","founded_year":2009,"category_code":"software","latitude":33.5341548,"longitude":-117.7769669,"total_money_raised":"$0","total_offices":1,"geoloc":{"type":"Point","coordinates":[-117.7769669,33.5341548]}},{"country_code":"USA","name":"Startlike","founded_year":2009,"category_code":"web","latitude":34.002737,"longitude":-81.018312,"total_money_raised":"$0","total_offices":1,"geoloc":{"type":"Point","coordinates":[-81.018312,34.002737]}},{"country_code":"USA","name":"ITTAGS","founded_year":2009,"category_code":"web","latitude":34.052187,"longitude":-118.243425,"total_money_raised":"$0","total_offices":1,"geoloc":{"type":"Point","coordinates":[-118.243425,34.052187]}},{"country_code":"USA","name":"Ray Websmith","founded_year":2009,"category_code":"web","latitude":42.2796339,"longitude":-88.3339768,"total_money_raised":"$0","total_offices":1,"geoloc":{"type":"Point","coordinates":[-88.3339768,42.2796339]}},{"country_code":"GBR","name":"Enternships","founded_year":2009,"category_code":"web","latitude":51.5215279,"longitude":-0.1038219,"total_money_raised":"$0","total_offices":1,"geoloc":{"type":"Point","coordinates":[-0.1038219,51.5215279]}},{"country_code":"SWE","name":"Kvittar","founded_year":2009,"category_code":"web","latitude":55.6057989,"longitude":12.9950742,"total_money_raised":"$0","total_offices":1,"geoloc":{"type":"Point","coordinates":[12.9950742,55.6057989]}},{"country_code":"NLD","name":"Layar","founded_year":2009,"category_code":"mobile","latitude":52.3657578,"longitude":4.8928722,"total_money_raised":"$13.4M","total_offices":1,"geoloc":{"type":"Point","coordinates":[4.8928722,52.3657578]}},{"country_code":"USA","name":"GatherSource","founded_year":2009,"category_code":"web","latitude":47.909156,"longitude":-97.055612,"total_money_raised":"$0","total_offices":1,"geoloc":{"type":"Point","coordinates":[-97.055612,47.909156]}},{"country_code":"GBR","name":"PicFog","founded_year":2009,"category_code":"search","latitude":51.4770982,"longitude":-0.2867703,"total_money_raised":"$0","total_offices":1,"geoloc":{"type":"Point","coordinates":[-0.2867703,51.4770982]}},{"country_code":"ESP","name":"Taxi Fares app","founded_year":2009,"category_code":"software","latitude":40.4244585,"longitude":-3.6990948,"total_money_raised":"$0","total_offices":1,"geoloc":{"type":"Point","coordinates":[-3.6990948,40.4244585]}},{"country_code":"USA","name":"Actinobac Biomed","founded_year":2009,"category_code":"biotech","latitude":40.455501,"longitude":-74.478931,"total_money_raised":"$600k","total_offices":1,"geoloc":{"type":"Point","coordinates":[-74.478931,40.455501]}},{"country_code":"NLD","name":"Lipperhey","founded_year":2009,"category_code":"software","latitude":52.3655578,"longitude":4.9345824,"total_money_raised":"\u20ac200k","total_offices":1,"geoloc":{"type":"Point","coordinates":[4.9345824,52.3655578]}},{"country_code":"ESP","name":"ticketea","founded_year":2010,"category_code":"ecommerce","latitude":40.4455155,"longitude":-3.7061764,"total_money_raised":"$5.73M","total_offices":1,"geoloc":{"type":"Point","coordinates":[-3.7061764,40.4455155]}},{"country_code":"AUT","name":"Wikitude","founded_year":2009,"category_code":"mobile","latitude":47.8227,"longitude":13.041788,"total_money_raised":"$0","total_offices":1,"geoloc":{"type":"Point","coordinates":[13.041788,47.8227]}},{"country_code":"USA","name":"ZOOMcatalog","founded_year":2009,"category_code":"advertising","latitude":40.003146,"longitude":-105.137715,"total_money_raised":"$0","total_offices":1,"geoloc":{"type":"Point","coordinates":[-105.137715,40.003146]}},{"country_code":"AUT","name":"vooch","founded_year":2009,"category_code":"mobile","latitude":48.1154399,"longitude":16.2974355,"total_money_raised":"$0","total_offices":1,"geoloc":{"type":"Point","coordinates":[16.2974355,48.1154399]}},{"country_code":"USA","name":"Truckeo","founded_year":2009,"category_code":"ecommerce","latitude":32.2306445,"longitude":-110.9725175,"total_money_raised":"$0","total_offices":1,"geoloc":{"type":"Point","coordinates":[-110.9725175,32.2306445]}},{"country_code":"USA","name":"Vortimer","founded_year":2009,"category_code":"web","latitude":38.905504,"longitude":-77.05681,"total_money_raised":"$0","total_offices":1,"geoloc":{"type":"Point","coordinates":[-77.05681,38.905504]}},{"country_code":"GBR","name":"Myhive","founded_year":2009,"category_code":"mobile","latitude":51.5514688,"longitude":-0.1996418,"total_money_raised":"$0","total_offices":1,"geoloc":{"type":"Point","coordinates":[-0.1996418,51.5514688]}},{"country_code":"PRI","name":"140Ware","founded_year":2009,"category_code":"web","latitude":18.2066344,"longitude":-67.1517568,"total_money_raised":"$0","total_offices":1,"geoloc":{"type":"Point","coordinates":[-67.1517568,18.2066344]}},{"country_code":"USA","name":"Asyus","founded_year":2009,"category_code":"web","latitude":37.241813,"longitude":-121.986779,"total_money_raised":"$0","total_offices":1,"geoloc":{"type":"Point","coordinates":[-121.986779,37.241813]}},{"country_code":"ITA","name":"Easter Egg","founded_year":2009,"category_code":"software","latitude":45.4649519,"longitude":9.2087727,"total_money_raised":"$0","total_offices":1,"geoloc":{"type":"Point","coordinates":[9.2087727,45.4649519]}},{"country_code":"USA","name":"ChallengePost","founded_year":2009,"category_code":"web","latitude":40.7408042,"longitude":-74.00717,"total_money_raised":"$4.6M","total_offices":1,"geoloc":{"type":"Point","coordinates":[-74.00717,40.7408042]}},{"country_code":"CAN","name":"Clickom","founded_year":2009,"category_code":"ecommerce","latitude":43.6502994,"longitude":-79.3762688,"total_money_raised":"$0","total_offices":1,"geoloc":{"type":"Point","coordinates":[-79.3762688,43.6502994]}},{"country_code":"FRA","name":"ftopia","founded_year":2009,"category_code":"software","latitude":53.3328144,"longitude":-6.2493777,"total_money_raised":"$0","total_offices":1,"geoloc":{"type":"Point","coordinates":[-6.2493777,53.3328144]}},{"country_code":"USA","name":"Tiverias Apps","founded_year":2009,"category_code":"software","latitude":42.3672873,"longitude":-71.0814466,"total_money_raised":"$0","total_offices":1,"geoloc":{"type":"Point","coordinates":[-71.0814466,42.3672873]}},{"country_code":"USA","name":"HOTForms123","founded_year":2009,"category_code":"web","latitude":34.0698912,"longitude":-118.405325,"total_money_raised":"$0","total_offices":1,"geoloc":{"type":"Point","coordinates":[-118.405325,34.0698912]}},{"country_code":"USA","name":"pTracker","founded_year":2009,"category_code":"mobile","latitude":30.268735,"longitude":-97.745209,"total_money_raised":"$0","total_offices":1,"geoloc":{"type":"Point","coordinates":[-97.745209,30.268735]}},{"country_code":"GBR","name":"Bookwhen","founded_year":2009,"category_code":"ecommerce","latitude":51.7714264,"longitude":-1.2581049,"total_money_raised":"$0","total_offices":1,"geoloc":{"type":"Point","coordinates":[-1.2581049,51.7714264]}},{"country_code":"CAN","name":"Tiny Speck","founded_year":2009,"category_code":"games_video","latitude":49.2824551,"longitude":-123.109217,"total_money_raised":"$17.2M","total_offices":1,"geoloc":{"type":"Point","coordinates":[-123.109217,49.2824551]}},{"country_code":"USA","name":"InstantQ","founded_year":2009,"category_code":"advertising","latitude":37.369195,"longitude":-122.036849,"total_money_raised":"$0","total_offices":1,"geoloc":{"type":"Point","coordinates":[-122.036849,37.369195]}},{"country_code":"GBR","name":"acrossair","founded_year":2009,"category_code":"mobile","latitude":51.5177425,"longitude":-0.1165365,"total_money_raised":"$0","total_offices":1,"geoloc":{"type":"Point","coordinates":[-0.1165365,51.5177425]}},{"country_code":"BEL","name":"Getyoo","founded_year":2009,"category_code":"mobile","latitude":50.83997,"longitude":4.3464721,"total_money_raised":"\u20ac1.13M","total_offices":1,"geoloc":{"type":"Point","coordinates":[4.3464721,50.83997]}},{"country_code":"CHE","name":"Oriact","founded_year":2009,"category_code":"software","latitude":47.0882193,"longitude":8.4371634,"total_money_raised":"$0","total_offices":1,"geoloc":{"type":"Point","coordinates":[8.4371634,47.0882193]}}]